<?xml version="1.0" encoding="UTF-8"?>
<kml xmlns="http://www.opengis.net/kml/2.2">
  <Document>
    <name>KVB train and bus stops</name>
    <Placemark>
      <name>Heumarkt</name>
      <Point>
        <coordinates>6.960314,50.9357474</coordinates>
      </Point>
    </Placemark>
    <Placemark>
      <name>Heumarkt</name>
      <Point>
        <coordinates>6.9603096,50.935747</coordinates>
      </Point>
    </Placemark>
    <Placemark>
      <name>Neumarkt</name>
      <Point>
        <coordinates>6.9477566,50.9357815</coordinates>
      </Point>
    </Placemark>
    <Placemark>
      <name>Neumarkt</name>
      <Point>
        <coordinates>6.9469742,50.9363304</coordinates>
      </Point>
    </Placemark>
    <Placemark>
      <name>Neumarkt</name>
      <Point>
        <coordinates>6.9490133,50.9355157</coordinates>
      </Point>
    </Placemark>
    <Placemark>
      <name>Neumarkt</name>
      <Point>
        <coordinates>6.947963,50.9362775</coordinates>
      </Point>
    </Placemark>
    <Placemark>
      <name>Neumarkt</name>
      <Point>
        <coordinates>6.9482005,50.9356738</coordinates>
      </Point>
    </Placemark>
    <Placemark>
      <name>Poststr.</name>
      <Point>
        <coordinates>6.9499566,50.9317732</coordinates>
      </Point>
    </Placemark>
    <Placemark>
      <name>Mauritiuskirche</name>
      <Point>
        <coordinates>6.9450868,50.9336615</coordinates>
      </Point>
    </Placemark>
    <Placemark>
      <name>Gürzenichstr.</name>
      <Point>
        <coordinates>6.9578747,50.9369923</coordinates>
      </Point>
    </Placemark>
    <Placemark>
      <name>Gürzenichstr.</name>
      <Point>
        <coordinates>6.9596608,50.9362764</coordinates>
      </Point>
    </Placemark>
    <Placemark>
      <name>Rathaus</name>
      <Point>
        <coordinates>6.958082,50.9386568</coordinates>
      </Point>
    </Placemark>
    <Placemark>
      <name>Rathaus</name>
      <Point>
        <coordinates>6.9581659,50.9378974</coordinates>
      </Point>
    </Placemark>
    <Placemark>
      <name>Appellhofplatz</name>
      <Point>
        <coordinates>6.9507033,50.9412253</coordinates>
      </Point>
    </Placemark>
    <Placemark>
      <name>Dom/Hbf</name>
      <Point>
        <coordinates>6.9572211,50.9417279</coordinates>
      </Point>
    </Placemark>
    <Placemark>
      <name>Dom/Hbf</name>
      <Point>
        <coordinates>6.9571733,50.9417582</coordinates>
      </Point>
    </Placemark>
    <Placemark>
      <name>Breslauer Platz/Hbf</name>
      <Point>
        <coordinates>6.960087,50.9430869</coordinates>
      </Point>
    </Placemark>
    <Placemark>
      <name>Breslauer Platz/Hbf</name>
      <Point>
        <coordinates>6.9608965,50.9430846</coordinates>
      </Point>
    </Placemark>
    <Placemark>
      <name>Severinstr.</name>
      <Point>
        <coordinates>6.9577079,50.9293001</coordinates>
      </Point>
    </Placemark>
    <Placemark>
      <name>Severinstr.</name>
      <Point>
        <coordinates>6.9589417,50.9285837</coordinates>
      </Point>
    </Placemark>
    <Placemark>
      <name>Severinstr.</name>
      <Point>
        <coordinates>6.9579595,50.9286163</coordinates>
      </Point>
    </Placemark>
    <Placemark>
      <name>Severinstr.</name>
      <Point>
        <coordinates>6.9570157,50.9301614</coordinates>
      </Point>
    </Placemark>
    <Placemark>
      <name>Waidmarkt</name>
      <Point>
        <coordinates>6.9554769,50.9324344</coordinates>
      </Point>
    </Placemark>
    <Placemark>
      <name>Waidmarkt</name>
      <Point>
        <coordinates>6.9562083,50.9323621</coordinates>
      </Point>
    </Placemark>
    <Placemark>
      <name>Rosenstr.</name>
      <Point>
        <coordinates>6.958659,50.92629</coordinates>
      </Point>
    </Placemark>
    <Placemark>
      <name>Rosenstr.</name>
      <Point>
        <coordinates>6.961364,50.926894</coordinates>
      </Point>
    </Placemark>
    <Placemark>
      <name>Silbermöwenweg</name>
      <Point>
        <coordinates>6.876602,50.966296</coordinates>
      </Point>
    </Placemark>
    <Placemark>
      <name>Severinskirche</name>
      <Point>
        <coordinates>6.9602321,50.9241316</coordinates>
      </Point>
    </Placemark>
    <Placemark>
      <name>Severinskirche</name>
      <Point>
        <coordinates>6.9616018,50.9236763</coordinates>
      </Point>
    </Placemark>
    <Placemark>
      <name>Ubierring</name>
      <Point>
        <coordinates>6.9656608,50.922458</coordinates>
      </Point>
    </Placemark>
    <Placemark>
      <name>Ubierring</name>
      <Point>
        <coordinates>6.9660486,50.9226518</coordinates>
      </Point>
    </Placemark>
    <Placemark>
      <name>Chlodwigplatz</name>
      <Point>
        <coordinates>6.9604343,50.9212571</coordinates>
      </Point>
    </Placemark>
    <Placemark>
      <name>Chlodwigplatz</name>
      <Point>
        <coordinates>6.9595896,50.9215422</coordinates>
      </Point>
    </Placemark>
    <Placemark>
      <name>Chlodwigplatz</name>
      <Point>
        <coordinates>6.9600954,50.9210036</coordinates>
      </Point>
    </Placemark>
    <Placemark>
      <name>Chlodwigplatz</name>
      <Point>
        <coordinates>6.9594768,50.9215336</coordinates>
      </Point>
    </Placemark>
    <Placemark>
      <name>Ulrepforte</name>
      <Point>
        <coordinates>6.9517926,50.9241245</coordinates>
      </Point>
    </Placemark>
    <Placemark>
      <name>Alteburger Wall</name>
      <Point>
        <coordinates>6.9642407,50.917384</coordinates>
      </Point>
    </Placemark>
    <Placemark>
      <name>Alteburger Wall</name>
      <Point>
        <coordinates>6.9610407,50.9166901</coordinates>
      </Point>
    </Placemark>
    <Placemark>
      <name>Eifelplatz</name>
      <Point>
        <coordinates>6.9434608,50.9232266</coordinates>
      </Point>
    </Placemark>
    <Placemark>
      <name>Eifelstr.</name>
      <Point>
        <coordinates>6.945806,50.9266343</coordinates>
      </Point>
    </Placemark>
    <Placemark>
      <name>Barbarossaplatz</name>
      <Point>
        <coordinates>6.9421476,50.928975</coordinates>
      </Point>
    </Placemark>
    <Placemark>
      <name>Barbarossaplatz</name>
      <Point>
        <coordinates>6.9432429,50.9289796</coordinates>
      </Point>
    </Placemark>
    <Placemark>
      <name>Barbarossaplatz</name>
      <Point>
        <coordinates>6.9424488,50.9282533</coordinates>
      </Point>
    </Placemark>
    <Placemark>
      <name>Barbarossaplatz</name>
      <Point>
        <coordinates>6.9409176,50.9284999</coordinates>
      </Point>
    </Placemark>
    <Placemark>
      <name>Zülpicher Platz</name>
      <Point>
        <coordinates>6.9401662,50.9307962</coordinates>
      </Point>
    </Placemark>
    <Placemark>
      <name>Zülpicher Platz</name>
      <Point>
        <coordinates>6.9406314,50.9313812</coordinates>
      </Point>
    </Placemark>
    <Placemark>
      <name>Dasselstr./Bf Süd</name>
      <Point>
        <coordinates>6.935896,50.9283145</coordinates>
      </Point>
    </Placemark>
    <Placemark>
      <name>Eifelwall</name>
      <Point>
        <coordinates>6.9369529,50.9246</coordinates>
      </Point>
    </Placemark>
    <Placemark>
      <name>Eifelwall</name>
      <Point>
        <coordinates>6.9368128,50.9246466</coordinates>
      </Point>
    </Placemark>
    <Placemark>
      <name>Eifelwall</name>
      <Point>
        <coordinates>6.9367376,50.9247888</coordinates>
      </Point>
    </Placemark>
    <Placemark>
      <name>Eifelwall</name>
      <Point>
        <coordinates>6.9370486,50.9253246</coordinates>
      </Point>
    </Placemark>
    <Placemark>
      <name>Eifelwall</name>
      <Point>
        <coordinates>6.9371042,50.9246247</coordinates>
      </Point>
    </Placemark>
    <Placemark>
      <name>Rudolfplatz</name>
      <Point>
        <coordinates>6.93975,50.9361981</coordinates>
      </Point>
    </Placemark>
    <Placemark>
      <name>Rudolfplatz</name>
      <Point>
        <coordinates>6.9398502,50.9355779</coordinates>
      </Point>
    </Placemark>
    <Placemark>
      <name>Rudolfplatz</name>
      <Point>
        <coordinates>6.938996,50.9364011</coordinates>
      </Point>
    </Placemark>
    <Placemark>
      <name>Rudolfplatz</name>
      <Point>
        <coordinates>6.93975,50.9361981</coordinates>
      </Point>
    </Placemark>
    <Placemark>
      <name>Rudolfplatz</name>
      <Point>
        <coordinates>6.9398502,50.9355779</coordinates>
      </Point>
    </Placemark>
    <Placemark>
      <name>Moltkestr.</name>
      <Point>
        <coordinates>6.9323815,50.9355383</coordinates>
      </Point>
    </Placemark>
    <Placemark>
      <name>Moltkestr.</name>
      <Point>
        <coordinates>6.9330107,50.9365011</coordinates>
      </Point>
    </Placemark>
    <Placemark>
      <name>Moltkestr.</name>
      <Point>
        <coordinates>6.9328022,50.935397</coordinates>
      </Point>
    </Placemark>
    <Placemark>
      <name>Moltkestr.</name>
      <Point>
        <coordinates>6.9324628,50.9361863</coordinates>
      </Point>
    </Placemark>
    <Placemark>
      <name>Roonstr.</name>
      <Point>
        <coordinates>6.9342218,50.9332424</coordinates>
      </Point>
    </Placemark>
    <Placemark>
      <name>Roonstr.</name>
      <Point>
        <coordinates>6.9340394,50.9328671</coordinates>
      </Point>
    </Placemark>
    <Placemark>
      <name>Friesenplatz</name>
      <Point>
        <coordinates>6.940033,50.9405098</coordinates>
      </Point>
    </Placemark>
    <Placemark>
      <name>Hans-Böckler-Platz/Bf West</name>
      <Point>
        <coordinates>6.9338669,50.9436789</coordinates>
      </Point>
    </Placemark>
    <Placemark>
      <name>Hans-Böckler-Platz/Bf West</name>
      <Point>
        <coordinates>6.9332108,50.9435048</coordinates>
      </Point>
    </Placemark>
    <Placemark>
      <name>Hans-Böckler-Platz/Bf West</name>
      <Point>
        <coordinates>6.9341307,50.9436086</coordinates>
      </Point>
    </Placemark>
    <Placemark>
      <name>Christophstr./Mediapark</name>
      <Point>
        <coordinates>6.9422527,50.9445512</coordinates>
      </Point>
    </Placemark>
    <Placemark>
      <name>Christophstr./Mediapark</name>
      <Point>
        <coordinates>6.9420127,50.9448547</coordinates>
      </Point>
    </Placemark>
    <Placemark>
      <name>Reichenspergerplatz</name>
      <Point>
        <coordinates>6.9644622,50.9541391</coordinates>
      </Point>
    </Placemark>
    <Placemark>
      <name>Reichenspergerplatz</name>
      <Point>
        <coordinates>6.9634422,50.9538902</coordinates>
      </Point>
    </Placemark>
    <Placemark>
      <name>Ebertplatz</name>
      <Point>
        <coordinates>6.9590839,50.9507856</coordinates>
      </Point>
    </Placemark>
    <Placemark>
      <name>Ebertplatz</name>
      <Point>
        <coordinates>6.957991,50.9509016</coordinates>
      </Point>
    </Placemark>
    <Placemark>
      <name>Hansaring</name>
      <Point>
        <coordinates>6.9516121,50.948751</coordinates>
      </Point>
    </Placemark>
    <Placemark>
      <name>Hansaring</name>
      <Point>
        <coordinates>6.9517116,50.9490727</coordinates>
      </Point>
    </Placemark>
    <Placemark>
      <name>Worringer Str.</name>
      <Point>
        <coordinates>6.9670464,50.9552663</coordinates>
      </Point>
    </Placemark>
    <Placemark>
      <name>Krefelder Wall</name>
      <Point>
        <coordinates>6.9506503,50.9541484</coordinates>
      </Point>
    </Placemark>
    <Placemark>
      <name>Krefelder Wall</name>
      <Point>
        <coordinates>6.9502415,50.9540943</coordinates>
      </Point>
    </Placemark>
    <Placemark>
      <name>Deutzer Freiheit</name>
      <Point>
        <coordinates>6.9714055,50.9380881</coordinates>
      </Point>
    </Placemark>
    <Placemark>
      <name>Deutzer Freiheit</name>
      <Point>
        <coordinates>6.9709836,50.9359111</coordinates>
      </Point>
    </Placemark>
    <Placemark>
      <name>Suevenstr.</name>
      <Point>
        <coordinates>6.9763699,50.9327911</coordinates>
      </Point>
    </Placemark>
    <Placemark>
      <name>Bf Deutz/Messe</name>
      <Point>
        <coordinates>6.9776151,50.9395024</coordinates>
      </Point>
    </Placemark>
    <Placemark>
      <name>Bf Deutz/Messe</name>
      <Point>
        <coordinates>6.9763302,50.9398472</coordinates>
      </Point>
    </Placemark>
    <Placemark>
      <name>Koelnmesse</name>
      <Point>
        <coordinates>6.9819912,50.94349</coordinates>
      </Point>
    </Placemark>
    <Placemark>
      <name>Deutz-Kalker Bad</name>
      <Point>
        <coordinates>6.9859781,50.9365656</coordinates>
      </Point>
    </Placemark>
    <Placemark>
      <name>Deutz-Kalker Bad</name>
      <Point>
        <coordinates>6.9862899,50.9363408</coordinates>
      </Point>
    </Placemark>
    <Placemark>
      <name>Severinsbrücke</name>
      <Point>
        <coordinates>6.9721569,50.9308435</coordinates>
      </Point>
    </Placemark>
    <Placemark>
      <name>Drehbrücke</name>
      <Point>
        <coordinates>6.9744825,50.9287869</coordinates>
      </Point>
    </Placemark>
    <Placemark>
      <name>Poller Kirchweg</name>
      <Point>
        <coordinates>6.9798663,50.9238227</coordinates>
      </Point>
    </Placemark>
    <Placemark>
      <name>Betzdorfer Str.</name>
      <Point>
        <coordinates>6.991655,50.9358693</coordinates>
      </Point>
    </Placemark>
    <Placemark>
      <name>Betzdorfer Str.</name>
      <Point>
        <coordinates>6.9916774,50.9357785</coordinates>
      </Point>
    </Placemark>
    <Placemark>
      <name>Im Rheinpark</name>
      <Point>
        <coordinates>6.9750183,50.9456285</coordinates>
      </Point>
    </Placemark>
    <Placemark>
      <name>Im Rheinpark</name>
      <Point>
        <coordinates>6.9748917,50.945672</coordinates>
      </Point>
    </Placemark>
    <Placemark>
      <name>Pohligstr.</name>
      <Point>
        <coordinates>6.9414533,50.9165091</coordinates>
      </Point>
    </Placemark>
    <Placemark>
      <name>Pohligstr.</name>
      <Point>
        <coordinates>6.94073,50.91721</coordinates>
      </Point>
    </Placemark>
    <Placemark>
      <name>Pohligstr.</name>
      <Point>
        <coordinates>6.9411,50.91734</coordinates>
      </Point>
    </Placemark>
    <Placemark>
      <name>Herthastr.</name>
      <Point>
        <coordinates>6.9407607,50.9129489</coordinates>
      </Point>
    </Placemark>
    <Placemark>
      <name>Herthastr.</name>
      <Point>
        <coordinates>6.9407058,50.9130204</coordinates>
      </Point>
    </Placemark>
    <Placemark>
      <name>Gottesweg</name>
      <Point>
        <coordinates>6.9413671,50.9098383</coordinates>
      </Point>
    </Placemark>
    <Placemark>
      <name>Gottesweg</name>
      <Point>
        <coordinates>6.9409404,50.9109549</coordinates>
      </Point>
    </Placemark>
    <Placemark>
      <name>Gottesweg</name>
      <Point>
        <coordinates>6.9410852,50.9109968</coordinates>
      </Point>
    </Placemark>
    <Placemark>
      <name>Zollstockgürtel</name>
      <Point>
        <coordinates>6.9420467,50.9053534</coordinates>
      </Point>
    </Placemark>
    <Placemark>
      <name>Zollstockgürtel</name>
      <Point>
        <coordinates>6.94374,50.90464</coordinates>
      </Point>
    </Placemark>
    <Placemark>
      <name>Zollstockgürtel</name>
      <Point>
        <coordinates>6.9437522,50.9048762</coordinates>
      </Point>
    </Placemark>
    <Placemark>
      <name>Zollstock Südfriedhof</name>
      <Point>
        <coordinates>6.9444945,50.9009689</coordinates>
      </Point>
    </Placemark>
    <Placemark>
      <name>Zollstock Südfriedhof</name>
      <Point>
        <coordinates>6.94521,50.90063</coordinates>
      </Point>
    </Placemark>
    <Placemark>
      <name>Zollstock Südfriedhof</name>
      <Point>
        <coordinates>6.94447,50.90104</coordinates>
      </Point>
    </Placemark>
    <Placemark>
      <name>Zollstock Südfriedhof</name>
      <Point>
        <coordinates>6.9460753,50.9006755</coordinates>
      </Point>
    </Placemark>
    <Placemark>
      <name>Zollstocksweg</name>
      <Point>
        <coordinates>6.9456836,50.9087869</coordinates>
      </Point>
    </Placemark>
    <Placemark>
      <name>Zollstocksweg</name>
      <Point>
        <coordinates>6.9454159,50.9092131</coordinates>
      </Point>
    </Placemark>
    <Placemark>
      <name>Roisdorfer Str.</name>
      <Point>
        <coordinates>6.9456409,50.9052605</coordinates>
      </Point>
    </Placemark>
    <Placemark>
      <name>Roisdorfer Str.</name>
      <Point>
        <coordinates>6.9453167,50.9061031</coordinates>
      </Point>
    </Placemark>
    <Placemark>
      <name>Kendenicher Str.</name>
      <Point>
        <coordinates>6.93727,50.9018436</coordinates>
      </Point>
    </Placemark>
    <Placemark>
      <name>Kendenicher Str.</name>
      <Point>
        <coordinates>6.93717,50.9017836</coordinates>
      </Point>
    </Placemark>
    <Placemark>
      <name>Kendenicher Str.</name>
      <Point>
        <coordinates>6.9369849,50.9022863</coordinates>
      </Point>
    </Placemark>
    <Placemark>
      <name>Kendenicher Str.</name>
      <Point>
        <coordinates>6.9365749,50.9016763</coordinates>
      </Point>
    </Placemark>
    <Placemark>
      <name>Oberer Komarweg</name>
      <Point>
        <coordinates>6.9320139,50.8988819</coordinates>
      </Point>
    </Placemark>
    <Placemark>
      <name>Oberer Komarweg</name>
      <Point>
        <coordinates>6.9312988,50.8985305</coordinates>
      </Point>
    </Placemark>
    <Placemark>
      <name>Brüggener Str.</name>
      <Point>
        <coordinates>6.9392499,50.9051627</coordinates>
      </Point>
    </Placemark>
    <Placemark>
      <name>Brüggener Str.</name>
      <Point>
        <coordinates>6.93915,50.90525</coordinates>
      </Point>
    </Placemark>
    <Placemark>
      <name>Bernkasteler Str.</name>
      <Point>
        <coordinates>6.9367686,50.9066886</coordinates>
      </Point>
    </Placemark>
    <Placemark>
      <name>Bernkasteler Str.</name>
      <Point>
        <coordinates>6.9374041,50.9063688</coordinates>
      </Point>
    </Placemark>
    <Placemark>
      <name>Rheinsteinstr.</name>
      <Point>
        <coordinates>6.9597519,50.9072226</coordinates>
      </Point>
    </Placemark>
    <Placemark>
      <name>Rheinsteinstr.</name>
      <Point>
        <coordinates>6.959782,50.9073972</coordinates>
      </Point>
    </Placemark>
    <Placemark>
      <name>Schönhauser Str.</name>
      <Point>
        <coordinates>6.9719348,50.9142927</coordinates>
      </Point>
    </Placemark>
    <Placemark>
      <name>Marktstr.</name>
      <Point>
        <coordinates>6.9644751,50.9116843</coordinates>
      </Point>
    </Placemark>
    <Placemark>
      <name>Marktstr.</name>
      <Point>
        <coordinates>6.9625814,50.911592</coordinates>
      </Point>
    </Placemark>
    <Placemark>
      <name>Koblenzer Str.</name>
      <Point>
        <coordinates>6.9674022,50.912479</coordinates>
      </Point>
    </Placemark>
    <Placemark>
      <name>Tacitusstr.</name>
      <Point>
        <coordinates>6.9698966,50.9092975</coordinates>
      </Point>
    </Placemark>
    <Placemark>
      <name>Mannsfeld</name>
      <Point>
        <coordinates>6.9628533,50.9095258</coordinates>
      </Point>
    </Placemark>
    <Placemark>
      <name>Mannsfeld</name>
      <Point>
        <coordinates>6.9629837,50.9095368</coordinates>
      </Point>
    </Placemark>
    <Placemark>
      <name>Mannsfeld</name>
      <Point>
        <coordinates>6.9618454,50.9096645</coordinates>
      </Point>
    </Placemark>
    <Placemark>
      <name>Mannsfeld</name>
      <Point>
        <coordinates>6.9619474,50.9098795</coordinates>
      </Point>
    </Placemark>
    <Placemark>
      <name>Cäsarstr.</name>
      <Point>
        <coordinates>6.963819,50.90628</coordinates>
      </Point>
    </Placemark>
    <Placemark>
      <name>Leichweg</name>
      <Point>
        <coordinates>6.94904,50.90408</coordinates>
      </Point>
    </Placemark>
    <Placemark>
      <name>Leichweg</name>
      <Point>
        <coordinates>6.94925,50.90438</coordinates>
      </Point>
    </Placemark>
    <Placemark>
      <name>Liblarer Str.</name>
      <Point>
        <coordinates>6.9513053,50.9002927</coordinates>
      </Point>
    </Placemark>
    <Placemark>
      <name>Liblarer Str.</name>
      <Point>
        <coordinates>6.9522953,50.900414</coordinates>
      </Point>
    </Placemark>
    <Placemark>
      <name>Heeresamt</name>
      <Point>
        <coordinates>6.951205,50.8977783</coordinates>
      </Point>
    </Placemark>
    <Placemark>
      <name>Heeresamt</name>
      <Point>
        <coordinates>6.95146,50.89744</coordinates>
      </Point>
    </Placemark>
    <Placemark>
      <name>Brühler Str./Gürtel</name>
      <Point>
        <coordinates>6.95807,50.90361</coordinates>
      </Point>
    </Placemark>
    <Placemark>
      <name>Brühler Str./Gürtel</name>
      <Point>
        <coordinates>6.95797,50.90396</coordinates>
      </Point>
    </Placemark>
    <Placemark>
      <name>Brühler Str./Gürtel</name>
      <Point>
        <coordinates>6.9578638,50.904734</coordinates>
      </Point>
    </Placemark>
    <Placemark>
      <name>Brühler Str./Gürtel</name>
      <Point>
        <coordinates>6.9573499,50.904821</coordinates>
      </Point>
    </Placemark>
    <Placemark>
      <name>Wasserwerk</name>
      <Point>
        <coordinates>6.9666208,50.8886179</coordinates>
      </Point>
    </Placemark>
    <Placemark>
      <name>Bayenthalgürtel</name>
      <Point>
        <coordinates>6.9782024,50.90634</coordinates>
      </Point>
    </Placemark>
    <Placemark>
      <name>Bayenthalgürtel</name>
      <Point>
        <coordinates>6.9763266,50.9060519</coordinates>
      </Point>
    </Placemark>
    <Placemark>
      <name>Bayenthalgürtel</name>
      <Point>
        <coordinates>6.9760609,50.9063079</coordinates>
      </Point>
    </Placemark>
    <Placemark>
      <name>Goltsteinstr./Gürtel</name>
      <Point>
        <coordinates>6.9719634,50.9045815</coordinates>
      </Point>
    </Placemark>
    <Placemark>
      <name>Goltsteinstr./Gürtel</name>
      <Point>
        <coordinates>6.9710038,50.9046825</coordinates>
      </Point>
    </Placemark>
    <Placemark>
      <name>Goltsteinstr./Gürtel</name>
      <Point>
        <coordinates>6.9718815,50.9043385</coordinates>
      </Point>
    </Placemark>
    <Placemark>
      <name>Goltsteinstr./Gürtel</name>
      <Point>
        <coordinates>6.9718815,50.9043385</coordinates>
      </Point>
    </Placemark>
    <Placemark>
      <name>Marienburger Str.</name>
      <Point>
        <coordinates>6.973338,50.9015513</coordinates>
      </Point>
    </Placemark>
    <Placemark>
      <name>Marienburger Str.</name>
      <Point>
        <coordinates>6.9738852,50.9010776</coordinates>
      </Point>
    </Placemark>
    <Placemark>
      <name>Marienburg Südpark</name>
      <Point>
        <coordinates>6.9754981,50.8983241</coordinates>
      </Point>
    </Placemark>
    <Placemark>
      <name>Bonner Str./Gürtel</name>
      <Point>
        <coordinates>6.965578,50.9036613</coordinates>
      </Point>
    </Placemark>
    <Placemark>
      <name>Bonner Str./Gürtel</name>
      <Point>
        <coordinates>6.9650139,50.9038887</coordinates>
      </Point>
    </Placemark>
    <Placemark>
      <name>Bonner Str./Gürtel</name>
      <Point>
        <coordinates>6.964547,50.904252</coordinates>
      </Point>
    </Placemark>
    <Placemark>
      <name>Bonner Str./Gürtel</name>
      <Point>
        <coordinates>6.9643034,50.9043172</coordinates>
      </Point>
    </Placemark>
    <Placemark>
      <name>Gaedestr.</name>
      <Point>
        <coordinates>6.9654136,50.9012777</coordinates>
      </Point>
    </Placemark>
    <Placemark>
      <name>Leyboldstr.</name>
      <Point>
        <coordinates>6.9661327,50.898642</coordinates>
      </Point>
    </Placemark>
    <Placemark>
      <name>Arnoldshöhe</name>
      <Point>
        <coordinates>6.9669499,50.8954327</coordinates>
      </Point>
    </Placemark>
    <Placemark>
      <name>Am Kölnberg</name>
      <Point>
        <coordinates>6.927954,50.862927</coordinates>
      </Point>
    </Placemark>
    <Placemark>
      <name>Meschenich Kirche</name>
      <Point>
        <coordinates>6.9269007,50.8602844</coordinates>
      </Point>
    </Placemark>
    <Placemark>
      <name>Engeldorfer Str.</name>
      <Point>
        <coordinates>6.928558,50.85903</coordinates>
      </Point>
    </Placemark>
    <Placemark>
      <name>Frankenstr.</name>
      <Point>
        <coordinates>6.9278502,50.8533749</coordinates>
      </Point>
    </Placemark>
    <Placemark>
      <name>Engeldorfer Hof</name>
      <Point>
        <coordinates>6.9211843,50.8538097</coordinates>
      </Point>
    </Placemark>
    <Placemark>
      <name>Kettelerstr.</name>
      <Point>
        <coordinates>6.9320899,50.8609982</coordinates>
      </Point>
    </Placemark>
    <Placemark>
      <name>Josef-Lammerting-Allee</name>
      <Point>
        <coordinates>6.8875524,50.9460043</coordinates>
      </Point>
    </Placemark>
    <Placemark>
      <name>Höningen Rondorfer Weg</name>
      <Point>
        <coordinates>6.93688,50.880214</coordinates>
      </Point>
    </Placemark>
    <Placemark>
      <name>Höningen Siedlung</name>
      <Point>
        <coordinates>6.939452,50.883726</coordinates>
      </Point>
    </Placemark>
    <Placemark>
      <name>Bonner Landstr.</name>
      <Point>
        <coordinates>6.969735,50.883101</coordinates>
      </Point>
    </Placemark>
    <Placemark>
      <name>Hochkirchen</name>
      <Point>
        <coordinates>6.9632501,50.8790945</coordinates>
      </Point>
    </Placemark>
    <Placemark>
      <name>Lerchenweg</name>
      <Point>
        <coordinates>6.9603295,50.8772931</coordinates>
      </Point>
    </Placemark>
    <Placemark>
      <name>Rondorf</name>
      <Point>
        <coordinates>6.9545441,50.8738703</coordinates>
      </Point>
    </Placemark>
    <Placemark>
      <name>Bödinger Str.</name>
      <Point>
        <coordinates>6.9505698,50.8745022</coordinates>
      </Point>
    </Placemark>
    <Placemark>
      <name>Westerwaldstr.</name>
      <Point>
        <coordinates>6.9467433,50.8721157</coordinates>
      </Point>
    </Placemark>
    <Placemark>
      <name>Am Steinneuerhof</name>
      <Point>
        <coordinates>6.9381069,50.876657</coordinates>
      </Point>
    </Placemark>
    <Placemark>
      <name>Friedhof Steinneuerhof</name>
      <Point>
        <coordinates>6.9374634,50.8735994</coordinates>
      </Point>
    </Placemark>
    <Placemark>
      <name>Kirschbaumweg</name>
      <Point>
        <coordinates>6.993489,50.872806</coordinates>
      </Point>
    </Placemark>
    <Placemark>
      <name>Mannesmannstr.</name>
      <Point>
        <coordinates>6.991301,50.868788</coordinates>
      </Point>
    </Placemark>
    <Placemark>
      <name>Hahnwald</name>
      <Point>
        <coordinates>6.978002,50.870033</coordinates>
      </Point>
    </Placemark>
    <Placemark>
      <name>Rodenkirchen Bf</name>
      <Point>
        <coordinates>6.9901304,50.8908469</coordinates>
      </Point>
    </Placemark>
    <Placemark>
      <name>Rodenkirchen Bf</name>
      <Point>
        <coordinates>6.9901842,50.8913086</coordinates>
      </Point>
    </Placemark>
    <Placemark>
      <name>Rodenkirchen Bf</name>
      <Point>
        <coordinates>6.9902736,50.8913283</coordinates>
      </Point>
    </Placemark>
    <Placemark>
      <name>Siegstr.</name>
      <Point>
        <coordinates>6.9946554,50.8833126</coordinates>
      </Point>
    </Placemark>
    <Placemark>
      <name>Michaelshoven</name>
      <Point>
        <coordinates>6.9990581,50.8760005</coordinates>
      </Point>
    </Placemark>
    <Placemark>
      <name>Maternusplatz</name>
      <Point>
        <coordinates>6.9937,50.892752</coordinates>
      </Point>
    </Placemark>
    <Placemark>
      <name>Frankstr.</name>
      <Point>
        <coordinates>6.989705,50.894691</coordinates>
      </Point>
    </Placemark>
    <Placemark>
      <name>Rodenkirchen Rathaus</name>
      <Point>
        <coordinates>6.996592,50.891738</coordinates>
      </Point>
    </Placemark>
    <Placemark>
      <name>Grimmelshausenstr.</name>
      <Point>
        <coordinates>7.00225,50.890476</coordinates>
      </Point>
    </Placemark>
    <Placemark>
      <name>Uferstr.</name>
      <Point>
        <coordinates>7.009782,50.891769</coordinates>
      </Point>
    </Placemark>
    <Placemark>
      <name>Siegfriedstr.</name>
      <Point>
        <coordinates>6.997874,50.887862</coordinates>
      </Point>
    </Placemark>
    <Placemark>
      <name>Grüngürtelstr.</name>
      <Point>
        <coordinates>7.0055626,50.8846786</coordinates>
      </Point>
    </Placemark>
    <Placemark>
      <name>Konrad-Adenauer-Str.</name>
      <Point>
        <coordinates>6.986062,50.890443</coordinates>
      </Point>
    </Placemark>
    <Placemark>
      <name>Schwabenstr.</name>
      <Point>
        <coordinates>6.989644,50.887141</coordinates>
      </Point>
    </Placemark>
    <Placemark>
      <name>Schillingsrotter Str.</name>
      <Point>
        <coordinates>6.989744,50.884488</coordinates>
      </Point>
    </Placemark>
    <Placemark>
      <name>Am Neuen Forst</name>
      <Point>
        <coordinates>6.9949301,50.8755456</coordinates>
      </Point>
    </Placemark>
    <Placemark>
      <name>Sürth Bf</name>
      <Point>
        <coordinates>7.003522,50.8642043</coordinates>
      </Point>
    </Placemark>
    <Placemark>
      <name>Sürth Bf</name>
      <Point>
        <coordinates>7.0041655,50.8646264</coordinates>
      </Point>
    </Placemark>
    <Placemark>
      <name>Wesselinger Str.</name>
      <Point>
        <coordinates>7.004559,50.860387</coordinates>
      </Point>
    </Placemark>
    <Placemark>
      <name>Marktplatz Sürth</name>
      <Point>
        <coordinates>7.007425,50.862214</coordinates>
      </Point>
    </Placemark>
    <Placemark>
      <name>Kölnstr.</name>
      <Point>
        <coordinates>7.011725,50.864685</coordinates>
      </Point>
    </Placemark>
    <Placemark>
      <name>Ernst-Volland-Str.</name>
      <Point>
        <coordinates>7.017631,50.867771</coordinates>
      </Point>
    </Placemark>
    <Placemark>
      <name>Hammerschmidtstr.</name>
      <Point>
        <coordinates>7.020895,50.870879</coordinates>
      </Point>
    </Placemark>
    <Placemark>
      <name>Ritterstr.</name>
      <Point>
        <coordinates>7.024359,50.872728</coordinates>
      </Point>
    </Placemark>
    <Placemark>
      <name>Weiß Friedhof</name>
      <Point>
        <coordinates>7.026846,50.877282</coordinates>
      </Point>
    </Placemark>
    <Placemark>
      <name>Zum Hedelsberg</name>
      <Point>
        <coordinates>7.021116,50.879031</coordinates>
      </Point>
    </Placemark>
    <Placemark>
      <name>Godorf Bf</name>
      <Point>
        <coordinates>6.9783575,50.8471128</coordinates>
      </Point>
    </Placemark>
    <Placemark>
      <name>Pierstr.</name>
      <Point>
        <coordinates>6.97575,50.848595</coordinates>
      </Point>
    </Placemark>
    <Placemark>
      <name>Otto-Hahn-Str.</name>
      <Point>
        <coordinates>6.9745207,50.8585591</coordinates>
      </Point>
    </Placemark>
    <Placemark>
      <name>Bunsenstr.</name>
      <Point>
        <coordinates>6.975201,50.853597</coordinates>
      </Point>
    </Placemark>
    <Placemark>
      <name>Friedhof Godorf</name>
      <Point>
        <coordinates>6.971058,50.850378</coordinates>
      </Point>
    </Placemark>
    <Placemark>
      <name>Immendorf Siedlung</name>
      <Point>
        <coordinates>6.965563,50.85383</coordinates>
      </Point>
    </Placemark>
    <Placemark>
      <name>Immendorf</name>
      <Point>
        <coordinates>6.9590036,50.8588276</coordinates>
      </Point>
    </Placemark>
    <Placemark>
      <name>Zaunhof</name>
      <Point>
        <coordinates>6.9547056,50.8604479</coordinates>
      </Point>
    </Placemark>
    <Placemark>
      <name>Mohnweg</name>
      <Point>
        <coordinates>6.8554744,50.9379756</coordinates>
      </Point>
    </Placemark>
    <Placemark>
      <name>Universitätsstr.</name>
      <Point>
        <coordinates>6.9254902,50.9366588</coordinates>
      </Point>
    </Placemark>
    <Placemark>
      <name>Universitätsstr.</name>
      <Point>
        <coordinates>6.9242529,50.9366838</coordinates>
      </Point>
    </Placemark>
    <Placemark>
      <name>Universitätsstr.</name>
      <Point>
        <coordinates>6.9245156,50.9359634</coordinates>
      </Point>
    </Placemark>
    <Placemark>
      <name>Universitätsstr.</name>
      <Point>
        <coordinates>6.9249287,50.9358519</coordinates>
      </Point>
    </Placemark>
    <Placemark>
      <name>Melaten</name>
      <Point>
        <coordinates>6.9165874,50.936839</coordinates>
      </Point>
    </Placemark>
    <Placemark>
      <name>Hildegardis-Krankenhaus</name>
      <Point>
        <coordinates>6.9234583,50.9304638</coordinates>
      </Point>
    </Placemark>
    <Placemark>
      <name>Hildegardis-Krankenhaus</name>
      <Point>
        <coordinates>6.9226139,50.9306084</coordinates>
      </Point>
    </Placemark>
    <Placemark>
      <name>Geibelstr.</name>
      <Point>
        <coordinates>6.9183596,50.9277913</coordinates>
      </Point>
    </Placemark>
    <Placemark>
      <name>Geibelstr.</name>
      <Point>
        <coordinates>6.9186195,50.9281305</coordinates>
      </Point>
    </Placemark>
    <Placemark>
      <name>Leiblplatz</name>
      <Point>
        <coordinates>6.9154585,50.9255526</coordinates>
      </Point>
    </Placemark>
    <Placemark>
      <name>Leiblplatz</name>
      <Point>
        <coordinates>6.916667,50.9266982</coordinates>
      </Point>
    </Placemark>
    <Placemark>
      <name>Karl-Schwering-Platz</name>
      <Point>
        <coordinates>6.9164816,50.9307</coordinates>
      </Point>
    </Placemark>
    <Placemark>
      <name>Karl-Schwering-Platz</name>
      <Point>
        <coordinates>6.9178115,50.931318</coordinates>
      </Point>
    </Placemark>
    <Placemark>
      <name>Theresienstr.</name>
      <Point>
        <coordinates>6.9128928,50.9293002</coordinates>
      </Point>
    </Placemark>
    <Placemark>
      <name>Theresienstr.</name>
      <Point>
        <coordinates>6.9133112,50.929591</coordinates>
      </Point>
    </Placemark>
    <Placemark>
      <name>Weißhausstr.</name>
      <Point>
        <coordinates>6.9334577,50.9214148</coordinates>
      </Point>
    </Placemark>
    <Placemark>
      <name>Weißhausstr.</name>
      <Point>
        <coordinates>6.9334029,50.9215653</coordinates>
      </Point>
    </Placemark>
    <Placemark>
      <name>Weißhausstr.</name>
      <Point>
        <coordinates>6.9338382,50.9215539</coordinates>
      </Point>
    </Placemark>
    <Placemark>
      <name>Arnulfstr.</name>
      <Point>
        <coordinates>6.9301528,50.9182254</coordinates>
      </Point>
    </Placemark>
    <Placemark>
      <name>Arnulfstr.</name>
      <Point>
        <coordinates>6.9301369,50.918342</coordinates>
      </Point>
    </Placemark>
    <Placemark>
      <name>Sülzburgstr.</name>
      <Point>
        <coordinates>6.9270383,50.9153799</coordinates>
      </Point>
    </Placemark>
    <Placemark>
      <name>Sülzburgstr.</name>
      <Point>
        <coordinates>6.9271411,50.9153488</coordinates>
      </Point>
    </Placemark>
    <Placemark>
      <name>Sülzburgstr.</name>
      <Point>
        <coordinates>6.9269506,50.9159899</coordinates>
      </Point>
    </Placemark>
    <Placemark>
      <name>Sülzburgstr.</name>
      <Point>
        <coordinates>6.9283399,50.9155707</coordinates>
      </Point>
    </Placemark>
    <Placemark>
      <name>Universität</name>
      <Point>
        <coordinates>6.9308577,50.9258137</coordinates>
      </Point>
    </Placemark>
    <Placemark>
      <name>Universität</name>
      <Point>
        <coordinates>6.9307287,50.9260055</coordinates>
      </Point>
    </Placemark>
    <Placemark>
      <name>Universität</name>
      <Point>
        <coordinates>6.9295995,50.9263966</coordinates>
      </Point>
    </Placemark>
    <Placemark>
      <name>Universität</name>
      <Point>
        <coordinates>6.9297626,50.925387</coordinates>
      </Point>
    </Placemark>
    <Placemark>
      <name>Weyertal</name>
      <Point>
        <coordinates>6.9273152,50.9241202</coordinates>
      </Point>
    </Placemark>
    <Placemark>
      <name>Weyertal</name>
      <Point>
        <coordinates>6.9266553,50.9238463</coordinates>
      </Point>
    </Placemark>
    <Placemark>
      <name>Lindenburg</name>
      <Point>
        <coordinates>6.9215216,50.9221657</coordinates>
      </Point>
    </Placemark>
    <Placemark>
      <name>Lindenburg</name>
      <Point>
        <coordinates>6.922058,50.9224227</coordinates>
      </Point>
    </Placemark>
    <Placemark>
      <name>Konradstr.</name>
      <Point>
        <coordinates>6.9275441,50.9202258</coordinates>
      </Point>
    </Placemark>
    <Placemark>
      <name>Sülzburgstr./Berrenrather Str.</name>
      <Point>
        <coordinates>6.9236715,50.9170678</coordinates>
      </Point>
    </Placemark>
    <Placemark>
      <name>Rhöndorfer Str.</name>
      <Point>
        <coordinates>6.9323808,50.9139045</coordinates>
      </Point>
    </Placemark>
    <Placemark>
      <name>Rhöndorfer Str.</name>
      <Point>
        <coordinates>6.9329324,50.9137539</coordinates>
      </Point>
    </Placemark>
    <Placemark>
      <name>Sülzgürtel</name>
      <Point>
        <coordinates>6.923224,50.9117164</coordinates>
      </Point>
    </Placemark>
    <Placemark>
      <name>Sülzgürtel</name>
      <Point>
        <coordinates>6.923071,50.9127119</coordinates>
      </Point>
    </Placemark>
    <Placemark>
      <name>Sülzgürtel</name>
      <Point>
        <coordinates>6.9233192,50.9116708</coordinates>
      </Point>
    </Placemark>
    <Placemark>
      <name>Sülzgürtel</name>
      <Point>
        <coordinates>6.9231745,50.9127829</coordinates>
      </Point>
    </Placemark>
    <Placemark>
      <name>Sülzgürtel</name>
      <Point>
        <coordinates>6.9236244,50.9125957</coordinates>
      </Point>
    </Placemark>
    <Placemark>
      <name>Sülzgürtel</name>
      <Point>
        <coordinates>6.9227744,50.9127057</coordinates>
      </Point>
    </Placemark>
    <Placemark>
      <name>Berrenrather Str./Gürtel</name>
      <Point>
        <coordinates>6.9204188,50.9145173</coordinates>
      </Point>
    </Placemark>
    <Placemark>
      <name>Berrenrather Str./Gürtel</name>
      <Point>
        <coordinates>6.9217078,50.9145596</coordinates>
      </Point>
    </Placemark>
    <Placemark>
      <name>Berrenrather Str./Gürtel</name>
      <Point>
        <coordinates>6.9214944,50.9147812</coordinates>
      </Point>
    </Placemark>
    <Placemark>
      <name>Euskirchener Str.</name>
      <Point>
        <coordinates>6.9178217,50.9163645</coordinates>
      </Point>
    </Placemark>
    <Placemark>
      <name>Euskirchener Str.</name>
      <Point>
        <coordinates>6.9168617,50.917234</coordinates>
      </Point>
    </Placemark>
    <Placemark>
      <name>Zülpicher Str./Gürtel</name>
      <Point>
        <coordinates>6.914777,50.9210193</coordinates>
      </Point>
    </Placemark>
    <Placemark>
      <name>Zülpicher Str./Gürtel</name>
      <Point>
        <coordinates>6.9156157,50.9197329</coordinates>
      </Point>
    </Placemark>
    <Placemark>
      <name>Zülpicher Str./Gürtel</name>
      <Point>
        <coordinates>6.9158729,50.9205121</coordinates>
      </Point>
    </Placemark>
    <Placemark>
      <name>Zülpicher Str./Gürtel</name>
      <Point>
        <coordinates>6.9145854,50.9202111</coordinates>
      </Point>
    </Placemark>
    <Placemark>
      <name>Mommsenstr.</name>
      <Point>
        <coordinates>6.9102546,50.9191306</coordinates>
      </Point>
    </Placemark>
    <Placemark>
      <name>Sülz Hermeskeiler Platz</name>
      <Point>
        <coordinates>6.9071464,50.9171353</coordinates>
      </Point>
    </Placemark>
    <Placemark>
      <name>Klettenbergpark</name>
      <Point>
        <coordinates>6.9192931,50.9080131</coordinates>
      </Point>
    </Placemark>
    <Placemark>
      <name>Siebengebirgsallee</name>
      <Point>
        <coordinates>6.9290967,50.9097934</coordinates>
      </Point>
    </Placemark>
    <Placemark>
      <name>Siebengebirgsallee</name>
      <Point>
        <coordinates>6.9279067,50.9101034</coordinates>
      </Point>
    </Placemark>
    <Placemark>
      <name>Wüllnerstr.</name>
      <Point>
        <coordinates>6.9078157,50.9317283</coordinates>
      </Point>
    </Placemark>
    <Placemark>
      <name>Dürener Str./Gürtel</name>
      <Point>
        <coordinates>6.9086049,50.928137</coordinates>
      </Point>
    </Placemark>
    <Placemark>
      <name>Dürener Str./Gürtel</name>
      <Point>
        <coordinates>6.9098566,50.9281202</coordinates>
      </Point>
    </Placemark>
    <Placemark>
      <name>Dürener Str./Gürtel</name>
      <Point>
        <coordinates>6.9094545,50.9281041</coordinates>
      </Point>
    </Placemark>
    <Placemark>
      <name>Kitschburger Str.</name>
      <Point>
        <coordinates>6.9011287,50.9262641</coordinates>
      </Point>
    </Placemark>
    <Placemark>
      <name>Kitschburger Str.</name>
      <Point>
        <coordinates>6.9018977,50.9264459</coordinates>
      </Point>
    </Placemark>
    <Placemark>
      <name>Brahmsstr.</name>
      <Point>
        <coordinates>6.8990693,50.9260941</coordinates>
      </Point>
    </Placemark>
    <Placemark>
      <name>Brahmsstr.</name>
      <Point>
        <coordinates>6.8992243,50.9261591</coordinates>
      </Point>
    </Placemark>
    <Placemark>
      <name>Brahmsstr.</name>
      <Point>
        <coordinates>6.8988917,50.9260036</coordinates>
      </Point>
    </Placemark>
    <Placemark>
      <name>Gleueler Str./Gürtel</name>
      <Point>
        <coordinates>6.9120456,50.9240411</coordinates>
      </Point>
    </Placemark>
    <Placemark>
      <name>Gleueler Str./Gürtel</name>
      <Point>
        <coordinates>6.9130383,50.9242139</coordinates>
      </Point>
    </Placemark>
    <Placemark>
      <name>Gleueler Str./Gürtel</name>
      <Point>
        <coordinates>6.9115294,50.9234022</coordinates>
      </Point>
    </Placemark>
    <Placemark>
      <name>Hohenlind</name>
      <Point>
        <coordinates>6.8973361,50.9245586</coordinates>
      </Point>
    </Placemark>
    <Placemark>
      <name>Krieler Str.</name>
      <Point>
        <coordinates>6.9077095,50.9218215</coordinates>
      </Point>
    </Placemark>
    <Placemark>
      <name>Krieler Str.</name>
      <Point>
        <coordinates>6.907105,50.9212965</coordinates>
      </Point>
    </Placemark>
    <Placemark>
      <name>Koppensteinstr.</name>
      <Point>
        <coordinates>6.9028108,50.9188959</coordinates>
      </Point>
    </Placemark>
    <Placemark>
      <name>Koppensteinstr.</name>
      <Point>
        <coordinates>6.9023196,50.9184356</coordinates>
      </Point>
    </Placemark>
    <Placemark>
      <name>Deckstein</name>
      <Point>
        <coordinates>6.900097,50.9168653</coordinates>
      </Point>
    </Placemark>
    <Placemark>
      <name>Aachener Str./Gürtel</name>
      <Point>
        <coordinates>6.9087698,50.9369972</coordinates>
      </Point>
    </Placemark>
    <Placemark>
      <name>Aachener Str./Gürtel</name>
      <Point>
        <coordinates>6.9079464,50.9370131</coordinates>
      </Point>
    </Placemark>
    <Placemark>
      <name>Aachener Str./Gürtel</name>
      <Point>
        <coordinates>6.9085232,50.9372587</coordinates>
      </Point>
    </Placemark>
    <Placemark>
      <name>Aachener Str./Gürtel</name>
      <Point>
        <coordinates>6.9083559,50.936709</coordinates>
      </Point>
    </Placemark>
    <Placemark>
      <name>Maarweg</name>
      <Point>
        <coordinates>6.899985,50.9371598</coordinates>
      </Point>
    </Placemark>
    <Placemark>
      <name>Clarenbachstift</name>
      <Point>
        <coordinates>6.8944192,50.9372623</coordinates>
      </Point>
    </Placemark>
    <Placemark>
      <name>Eupener Str.</name>
      <Point>
        <coordinates>6.8899396,50.9374383</coordinates>
      </Point>
    </Placemark>
    <Placemark>
      <name>Oskar-Jäger-Str./Gürtel</name>
      <Point>
        <coordinates>6.9108201,50.9396469</coordinates>
      </Point>
    </Placemark>
    <Placemark>
      <name>Stolberger Str./Eupener Str.</name>
      <Point>
        <coordinates>6.888828,50.94232</coordinates>
      </Point>
    </Placemark>
    <Placemark>
      <name>Stolberger Str./Maarweg</name>
      <Point>
        <coordinates>6.89753,50.942028</coordinates>
      </Point>
    </Placemark>
    <Placemark>
      <name>Alter Militärring</name>
      <Point>
        <coordinates>6.8814919,50.9377119</coordinates>
      </Point>
    </Placemark>
    <Placemark>
      <name>Alter Militärring</name>
      <Point>
        <coordinates>6.8821196,50.9379523</coordinates>
      </Point>
    </Placemark>
    <Placemark>
      <name>Alter Militärring</name>
      <Point>
        <coordinates>6.8811674,50.9379066</coordinates>
      </Point>
    </Placemark>
    <Placemark>
      <name>Rheinenergie-Stadion</name>
      <Point>
        <coordinates>6.877761,50.9369931</coordinates>
      </Point>
    </Placemark>
    <Placemark>
      <name>Rheinenergie-Stadion</name>
      <Point>
        <coordinates>6.8746697,50.9376262</coordinates>
      </Point>
    </Placemark>
    <Placemark>
      <name>Wendelinstr.</name>
      <Point>
        <coordinates>6.8798766,50.9406619</coordinates>
      </Point>
    </Placemark>
    <Placemark>
      <name>Wendelinstr.</name>
      <Point>
        <coordinates>6.8802747,50.9400504</coordinates>
      </Point>
    </Placemark>
    <Placemark>
      <name>Herrigergasse</name>
      <Point>
        <coordinates>6.8752745,50.9420066</coordinates>
      </Point>
    </Placemark>
    <Placemark>
      <name>Kämpchensweg</name>
      <Point>
        <coordinates>6.8727639,50.9453055</coordinates>
      </Point>
    </Placemark>
    <Placemark>
      <name>Am Lindenweg</name>
      <Point>
        <coordinates>6.8623982,50.9520401</coordinates>
      </Point>
    </Placemark>
    <Placemark>
      <name>Flachsweg</name>
      <Point>
        <coordinates>6.859517,50.9459933</coordinates>
      </Point>
    </Placemark>
    <Placemark>
      <name>Leinsamenweg</name>
      <Point>
        <coordinates>6.8530197,50.9454905</coordinates>
      </Point>
    </Placemark>
    <Placemark>
      <name>Roggenweg</name>
      <Point>
        <coordinates>6.8511979,50.9477894</coordinates>
      </Point>
    </Placemark>
    <Placemark>
      <name>Roggenweg</name>
      <Point>
        <coordinates>6.8476585,50.947624</coordinates>
      </Point>
    </Placemark>
    <Placemark>
      <name>Vitalisstr. Süd</name>
      <Point>
        <coordinates>6.882296,50.9431504</coordinates>
      </Point>
    </Placemark>
    <Placemark>
      <name>Vitalisstr. Süd</name>
      <Point>
        <coordinates>6.882178,50.9432281</coordinates>
      </Point>
    </Placemark>
    <Placemark>
      <name>Widdersdorfer Str.</name>
      <Point>
        <coordinates>6.8854596,50.9465835</coordinates>
      </Point>
    </Placemark>
    <Placemark>
      <name>Technologiepark Köln</name>
      <Point>
        <coordinates>6.8904184,50.9468724</coordinates>
      </Point>
    </Placemark>
    <Placemark>
      <name>Technologiepark Köln</name>
      <Point>
        <coordinates>6.8912552,50.946602</coordinates>
      </Point>
    </Placemark>
    <Placemark>
      <name>Schwindstr.</name>
      <Point>
        <coordinates>6.8616691,50.9408767</coordinates>
      </Point>
    </Placemark>
    <Placemark>
      <name>Schwindstr.</name>
      <Point>
        <coordinates>6.8616691,50.9408767</coordinates>
      </Point>
    </Placemark>
    <Placemark>
      <name>Böcklinstr.</name>
      <Point>
        <coordinates>6.8586341,50.9415604</coordinates>
      </Point>
    </Placemark>
    <Placemark>
      <name>Böcklinstr.</name>
      <Point>
        <coordinates>6.8586341,50.9415604</coordinates>
      </Point>
    </Placemark>
    <Placemark>
      <name>Junkersdorf</name>
      <Point>
        <coordinates>6.8687053,50.9376586</coordinates>
      </Point>
    </Placemark>
    <Placemark>
      <name>Junkersdorf</name>
      <Point>
        <coordinates>6.8676463,50.9373915</coordinates>
      </Point>
    </Placemark>
    <Placemark>
      <name>Junkersdorf</name>
      <Point>
        <coordinates>6.8679663,50.9380171</coordinates>
      </Point>
    </Placemark>
    <Placemark>
      <name>Birkenallee</name>
      <Point>
        <coordinates>6.860529,50.933911</coordinates>
      </Point>
    </Placemark>
    <Placemark>
      <name>Kölner Weg</name>
      <Point>
        <coordinates>6.857511,50.931488</coordinates>
      </Point>
    </Placemark>
    <Placemark>
      <name>Sterrenhofweg</name>
      <Point>
        <coordinates>6.8545571,50.928227</coordinates>
      </Point>
    </Placemark>
    <Placemark>
      <name>Beethovenstr.</name>
      <Point>
        <coordinates>6.8521109,50.9306546</coordinates>
      </Point>
    </Placemark>
    <Placemark>
      <name>Beethovenstr.</name>
      <Point>
        <coordinates>6.8521109,50.9306546</coordinates>
      </Point>
    </Placemark>
    <Placemark>
      <name>Südallee</name>
      <Point>
        <coordinates>6.864008,50.930488</coordinates>
      </Point>
    </Placemark>
    <Placemark>
      <name>Wiener Weg</name>
      <Point>
        <coordinates>6.8658009,50.9274696</coordinates>
      </Point>
    </Placemark>
    <Placemark>
      <name>Egelspfad</name>
      <Point>
        <coordinates>6.8531945,50.9422837</coordinates>
      </Point>
    </Placemark>
    <Placemark>
      <name>Bf Lövenich</name>
      <Point>
        <coordinates>6.8347392,50.9428732</coordinates>
      </Point>
    </Placemark>
    <Placemark>
      <name>Bf Lövenich</name>
      <Point>
        <coordinates>6.8339824,50.9432401</coordinates>
      </Point>
    </Placemark>
    <Placemark>
      <name>Bf Lövenich</name>
      <Point>
        <coordinates>6.8328022,50.9434969</coordinates>
      </Point>
    </Placemark>
    <Placemark>
      <name>Seithümerstr.</name>
      <Point>
        <coordinates>6.8326085,50.9463302</coordinates>
      </Point>
    </Placemark>
    <Placemark>
      <name>Seithümerstr.</name>
      <Point>
        <coordinates>6.8326085,50.9463302</coordinates>
      </Point>
    </Placemark>
    <Placemark>
      <name>Dieselstr.</name>
      <Point>
        <coordinates>6.840395,50.9471103</coordinates>
      </Point>
    </Placemark>
    <Placemark>
      <name>Dieselstr.</name>
      <Point>
        <coordinates>6.840395,50.9471103</coordinates>
      </Point>
    </Placemark>
    <Placemark>
      <name>Zaunstr.</name>
      <Point>
        <coordinates>6.8301601,50.9471061</coordinates>
      </Point>
    </Placemark>
    <Placemark>
      <name>Zaunstr.</name>
      <Point>
        <coordinates>6.8297739,50.9470628</coordinates>
      </Point>
    </Placemark>
    <Placemark>
      <name>An der Ronne</name>
      <Point>
        <coordinates>6.8287153,50.9511381</coordinates>
      </Point>
    </Placemark>
    <Placemark>
      <name>An der Ronne</name>
      <Point>
        <coordinates>6.8288466,50.9513131</coordinates>
      </Point>
    </Placemark>
    <Placemark>
      <name>Spitzangerweg</name>
      <Point>
        <coordinates>6.826984,50.947503</coordinates>
      </Point>
    </Placemark>
    <Placemark>
      <name>Saarstr.</name>
      <Point>
        <coordinates>6.821388,50.944036</coordinates>
      </Point>
    </Placemark>
    <Placemark>
      <name>Severinusstr.</name>
      <Point>
        <coordinates>6.825024,50.942842</coordinates>
      </Point>
    </Placemark>
    <Placemark>
      <name>Braugasse</name>
      <Point>
        <coordinates>6.8296474,50.9440183</coordinates>
      </Point>
    </Placemark>
    <Placemark>
      <name>Braugasse</name>
      <Point>
        <coordinates>6.8294436,50.944093</coordinates>
      </Point>
    </Placemark>
    <Placemark>
      <name>Selma-Lagerlöf-Str.</name>
      <Point>
        <coordinates>6.8286684,50.9419592</coordinates>
      </Point>
    </Placemark>
    <Placemark>
      <name>Selma-Lagerlöf-Str.</name>
      <Point>
        <coordinates>6.8286684,50.9419592</coordinates>
      </Point>
    </Placemark>
    <Placemark>
      <name>Frechener Weg</name>
      <Point>
        <coordinates>6.8263295,50.9387953</coordinates>
      </Point>
    </Placemark>
    <Placemark>
      <name>Üsdorf</name>
      <Point>
        <coordinates>6.826683,50.9351704</coordinates>
      </Point>
    </Placemark>
    <Placemark>
      <name>Üsdorf</name>
      <Point>
        <coordinates>6.8268545,50.9349541</coordinates>
      </Point>
    </Placemark>
    <Placemark>
      <name>Weiden Sportplatz</name>
      <Point>
        <coordinates>6.8414143,50.9423175</coordinates>
      </Point>
    </Placemark>
    <Placemark>
      <name>Stormstr.</name>
      <Point>
        <coordinates>6.8450084,50.9421958</coordinates>
      </Point>
    </Placemark>
    <Placemark>
      <name>Stormstr.</name>
      <Point>
        <coordinates>6.8450084,50.9421958</coordinates>
      </Point>
    </Placemark>
    <Placemark>
      <name>Ostlandstr.</name>
      <Point>
        <coordinates>6.8328259,50.9357731</coordinates>
      </Point>
    </Placemark>
    <Placemark>
      <name>Ostlandstr.</name>
      <Point>
        <coordinates>6.8331124,50.935851</coordinates>
      </Point>
    </Placemark>
    <Placemark>
      <name>Rosenhügel</name>
      <Point>
        <coordinates>7.0601342,50.8742951</coordinates>
      </Point>
    </Placemark>
    <Placemark>
      <name>Diepenbeekallee</name>
      <Point>
        <coordinates>6.8457595,50.9354215</coordinates>
      </Point>
    </Placemark>
    <Placemark>
      <name>Diepenbeekallee</name>
      <Point>
        <coordinates>6.8460185,50.9353887</coordinates>
      </Point>
    </Placemark>
    <Placemark>
      <name>Im Buschfelde</name>
      <Point>
        <coordinates>6.8388806,50.9676957</coordinates>
      </Point>
    </Placemark>
    <Placemark>
      <name>Widdersdorf</name>
      <Point>
        <coordinates>6.8342724,50.9663275</coordinates>
      </Point>
    </Placemark>
    <Placemark>
      <name>Adrian-Meller-Str.</name>
      <Point>
        <coordinates>6.8303978,50.9635755</coordinates>
      </Point>
    </Placemark>
    <Placemark>
      <name>Adrian-Meller-Str.</name>
      <Point>
        <coordinates>6.8302547,50.9635263</coordinates>
      </Point>
    </Placemark>
    <Placemark>
      <name>Blaugasse</name>
      <Point>
        <coordinates>6.8304389,50.9629606</coordinates>
      </Point>
    </Placemark>
    <Placemark>
      <name>Blaugasse</name>
      <Point>
        <coordinates>6.8298555,50.9606236</coordinates>
      </Point>
    </Placemark>
    <Placemark>
      <name>Stüttgenhof</name>
      <Point>
        <coordinates>6.8771644,50.920088</coordinates>
      </Point>
    </Placemark>
    <Placemark>
      <name>Marsdorf</name>
      <Point>
        <coordinates>6.857609,50.9173738</coordinates>
      </Point>
    </Placemark>
    <Placemark>
      <name>Marsdorf</name>
      <Point>
        <coordinates>6.8587466,50.9175772</coordinates>
      </Point>
    </Placemark>
    <Placemark>
      <name>Piusstr.</name>
      <Point>
        <coordinates>6.9259056,50.9460194</coordinates>
      </Point>
    </Placemark>
    <Placemark>
      <name>Körnerstr.</name>
      <Point>
        <coordinates>6.9202904,50.9483207</coordinates>
      </Point>
    </Placemark>
    <Placemark>
      <name>Gutenbergstr.</name>
      <Point>
        <coordinates>6.9281727,50.9504384</coordinates>
      </Point>
    </Placemark>
    <Placemark>
      <name>Liebigstr.</name>
      <Point>
        <coordinates>6.9236134,50.9525184</coordinates>
      </Point>
    </Placemark>
    <Placemark>
      <name>Liebigstr.</name>
      <Point>
        <coordinates>6.924897,50.9519456</coordinates>
      </Point>
    </Placemark>
    <Placemark>
      <name>Liebigstr.</name>
      <Point>
        <coordinates>6.9246305,50.9524297</coordinates>
      </Point>
    </Placemark>
    <Placemark>
      <name>Liebigstr.</name>
      <Point>
        <coordinates>6.9245226,50.9524737</coordinates>
      </Point>
    </Placemark>
    <Placemark>
      <name>Liebigstr.</name>
      <Point>
        <coordinates>6.9246621,50.952423</coordinates>
      </Point>
    </Placemark>
    <Placemark>
      <name>Weiden Schulstr.</name>
      <Point>
        <coordinates>6.8292639,50.9384086</coordinates>
      </Point>
    </Placemark>
    <Placemark>
      <name>Schaffrathsgasse</name>
      <Point>
        <coordinates>6.8702057,50.9716538</coordinates>
      </Point>
    </Placemark>
    <Placemark>
      <name>Walter-Pauli-Ring</name>
      <Point>
        <coordinates>6.9950496,50.9370758</coordinates>
      </Point>
    </Placemark>
    <Placemark>
      <name>Walter-Pauli-Ring</name>
      <Point>
        <coordinates>6.9951013,50.9372251</coordinates>
      </Point>
    </Placemark>
    <Placemark>
      <name>Willi-Lauf-Allee</name>
      <Point>
        <coordinates>6.8616084,50.9259408</coordinates>
      </Point>
    </Placemark>
    <Placemark>
      <name>Willi-Lauf-Allee</name>
      <Point>
        <coordinates>6.8615772,50.9260555</coordinates>
      </Point>
    </Placemark>
    <Placemark>
      <name>Subbelrather Str./Gürtel</name>
      <Point>
        <coordinates>6.9215922,50.954966</coordinates>
      </Point>
    </Placemark>
    <Placemark>
      <name>Subbelrather Str./Gürtel</name>
      <Point>
        <coordinates>6.9197262,50.9540188</coordinates>
      </Point>
    </Placemark>
    <Placemark>
      <name>Subbelrather Str./Gürtel</name>
      <Point>
        <coordinates>6.9197556,50.9538659</coordinates>
      </Point>
    </Placemark>
    <Placemark>
      <name>Nußbaumerstr.</name>
      <Point>
        <coordinates>6.9237157,50.957059</coordinates>
      </Point>
    </Placemark>
    <Placemark>
      <name>Lenauplatz</name>
      <Point>
        <coordinates>6.9182544,50.9586383</coordinates>
      </Point>
    </Placemark>
    <Placemark>
      <name>Iltisstr.</name>
      <Point>
        <coordinates>6.9124243,50.964929</coordinates>
      </Point>
    </Placemark>
    <Placemark>
      <name>Iltisstr.</name>
      <Point>
        <coordinates>6.9123821,50.9649081</coordinates>
      </Point>
    </Placemark>
    <Placemark>
      <name>Iltisstr.</name>
      <Point>
        <coordinates>6.9127647,50.9648991</coordinates>
      </Point>
    </Placemark>
    <Placemark>
      <name>Iltisstr.</name>
      <Point>
        <coordinates>6.9124472,50.9656743</coordinates>
      </Point>
    </Placemark>
    <Placemark>
      <name>Iltisstr.</name>
      <Point>
        <coordinates>6.9113183,50.9645099</coordinates>
      </Point>
    </Placemark>
    <Placemark>
      <name>Butzweilerstr.</name>
      <Point>
        <coordinates>6.9163526,50.9688897</coordinates>
      </Point>
    </Placemark>
    <Placemark>
      <name>Butzweilerstr.</name>
      <Point>
        <coordinates>6.9165311,50.968737</coordinates>
      </Point>
    </Placemark>
    <Placemark>
      <name>Venloer Str./Gürtel</name>
      <Point>
        <coordinates>6.9166764,50.9501453</coordinates>
      </Point>
    </Placemark>
    <Placemark>
      <name>Venloer Str./Gürtel</name>
      <Point>
        <coordinates>6.9162821,50.9494988</coordinates>
      </Point>
    </Placemark>
    <Placemark>
      <name>Venloer Str./Gürtel</name>
      <Point>
        <coordinates>6.915464,50.9490721</coordinates>
      </Point>
    </Placemark>
    <Placemark>
      <name>Eichenstr.</name>
      <Point>
        <coordinates>6.8685046,50.9269624</coordinates>
      </Point>
    </Placemark>
    <Placemark>
      <name>Eichenstr.</name>
      <Point>
        <coordinates>6.8685046,50.9269624</coordinates>
      </Point>
    </Placemark>
    <Placemark>
      <name>Geisselstr.</name>
      <Point>
        <coordinates>6.91674,50.9434772</coordinates>
      </Point>
    </Placemark>
    <Placemark>
      <name>Geisselstr.</name>
      <Point>
        <coordinates>6.9167864,50.9433661</coordinates>
      </Point>
    </Placemark>
    <Placemark>
      <name>Weinsbergstr./Gürtel</name>
      <Point>
        <coordinates>6.9127151,50.9447574</coordinates>
      </Point>
    </Placemark>
    <Placemark>
      <name>Weinsbergstr./Gürtel</name>
      <Point>
        <coordinates>6.9127821,50.9452641</coordinates>
      </Point>
    </Placemark>
    <Placemark>
      <name>Weinsbergstr./Gürtel</name>
      <Point>
        <coordinates>6.9119846,50.9450638</coordinates>
      </Point>
    </Placemark>
    <Placemark>
      <name>Weinsbergstr./Gürtel</name>
      <Point>
        <coordinates>6.9135356,50.9447166</coordinates>
      </Point>
    </Placemark>
    <Placemark>
      <name>Weinsbergstr./Gürtel</name>
      <Point>
        <coordinates>6.9121444,50.9451335</coordinates>
      </Point>
    </Placemark>
    <Placemark>
      <name>Leyendeckerstr.</name>
      <Point>
        <coordinates>6.9101259,50.9543833</coordinates>
      </Point>
    </Placemark>
    <Placemark>
      <name>Borsigstr.</name>
      <Point>
        <coordinates>6.9048026,50.9582225</coordinates>
      </Point>
    </Placemark>
    <Placemark>
      <name>Borsigstr.</name>
      <Point>
        <coordinates>6.9046033,50.9583285</coordinates>
      </Point>
    </Placemark>
    <Placemark>
      <name>Bf Deutz/Messeplatz</name>
      <Point>
        <coordinates>6.9730246,50.9420591</coordinates>
      </Point>
    </Placemark>
    <Placemark>
      <name>Oskar-Jäger-Str.</name>
      <Point>
        <coordinates>6.9072113,50.9453866</coordinates>
      </Point>
    </Placemark>
    <Placemark>
      <name>Karnevalsmuseum</name>
      <Point>
        <coordinates>6.898105,50.946015</coordinates>
      </Point>
    </Placemark>
    <Placemark>
      <name>Vogelsanger Str./Maarweg</name>
      <Point>
        <coordinates>6.899435,50.953025</coordinates>
      </Point>
    </Placemark>
    <Placemark>
      <name>Weiden Zentrum</name>
      <Point>
        <coordinates>6.8355402,50.9383072</coordinates>
      </Point>
    </Placemark>
    <Placemark>
      <name>Weiden Zentrum</name>
      <Point>
        <coordinates>6.8341471,50.9381779</coordinates>
      </Point>
    </Placemark>
    <Placemark>
      <name>Weiden Zentrum</name>
      <Point>
        <coordinates>6.835043,50.938258</coordinates>
      </Point>
    </Placemark>
    <Placemark>
      <name>Weiden Zentrum</name>
      <Point>
        <coordinates>6.8341471,50.9381779</coordinates>
      </Point>
    </Placemark>
    <Placemark>
      <name>Weiden Zentrum</name>
      <Point>
        <coordinates>6.8353005,50.9383486</coordinates>
      </Point>
    </Placemark>
    <Placemark>
      <name>Weiden Zentrum</name>
      <Point>
        <coordinates>6.834387,50.9381395</coordinates>
      </Point>
    </Placemark>
    <Placemark>
      <name>Weiden Zentrum</name>
      <Point>
        <coordinates>6.8341058,50.9384853</coordinates>
      </Point>
    </Placemark>
    <Placemark>
      <name>Äußere Kanalstr.</name>
      <Point>
        <coordinates>6.9022286,50.9569869</coordinates>
      </Point>
    </Placemark>
    <Placemark>
      <name>Äußere Kanalstr.</name>
      <Point>
        <coordinates>6.900822,50.9574445</coordinates>
      </Point>
    </Placemark>
    <Placemark>
      <name>Äußere Kanalstr.</name>
      <Point>
        <coordinates>6.9012314,50.9573824</coordinates>
      </Point>
    </Placemark>
    <Placemark>
      <name>Alter Deutzer Postweg</name>
      <Point>
        <coordinates>7.0503213,50.9188702</coordinates>
      </Point>
    </Placemark>
    <Placemark>
      <name>Alter Deutzer Postweg</name>
      <Point>
        <coordinates>7.0500919,50.9188144</coordinates>
      </Point>
    </Placemark>
    <Placemark>
      <name>Akazienweg</name>
      <Point>
        <coordinates>6.8935115,50.960862</coordinates>
      </Point>
    </Placemark>
    <Placemark>
      <name>Vogelsanger Str.</name>
      <Point>
        <coordinates>6.8921119,50.956191</coordinates>
      </Point>
    </Placemark>
    <Placemark>
      <name>Häuschensweg</name>
      <Point>
        <coordinates>6.9014324,50.9610183</coordinates>
      </Point>
    </Placemark>
    <Placemark>
      <name>Feltenstr.</name>
      <Point>
        <coordinates>6.9002219,50.9630736</coordinates>
      </Point>
    </Placemark>
    <Placemark>
      <name>Emilstr.</name>
      <Point>
        <coordinates>6.8979242,50.9663266</coordinates>
      </Point>
    </Placemark>
    <Placemark>
      <name>Erlenweg</name>
      <Point>
        <coordinates>6.8954587,50.968164</coordinates>
      </Point>
    </Placemark>
    <Placemark>
      <name>Mühlenweg</name>
      <Point>
        <coordinates>6.891054,50.9715221</coordinates>
      </Point>
    </Placemark>
    <Placemark>
      <name>Ossendorf</name>
      <Point>
        <coordinates>6.90451,50.976907</coordinates>
      </Point>
    </Placemark>
    <Placemark>
      <name>Rektor-Klein-Str.</name>
      <Point>
        <coordinates>6.9047539,50.9740196</coordinates>
      </Point>
    </Placemark>
    <Placemark>
      <name>Rektor-Klein-Str.</name>
      <Point>
        <coordinates>6.9047095,50.9740164</coordinates>
      </Point>
    </Placemark>
    <Placemark>
      <name>Rektor-Klein-Str.</name>
      <Point>
        <coordinates>6.904479,50.9746802</coordinates>
      </Point>
    </Placemark>
    <Placemark>
      <name>Margaretastr.</name>
      <Point>
        <coordinates>6.9055485,50.9683544</coordinates>
      </Point>
    </Placemark>
    <Placemark>
      <name>Alter Flughafen Butzweilerhof</name>
      <Point>
        <coordinates>6.89813,50.9774704</coordinates>
      </Point>
    </Placemark>
    <Placemark>
      <name>Alter Flughafen Butzweilerhof</name>
      <Point>
        <coordinates>6.8969728,50.977682</coordinates>
      </Point>
    </Placemark>
    <Placemark>
      <name>Alter Flughafen Butzweilerhof</name>
      <Point>
        <coordinates>6.8975004,50.9775047</coordinates>
      </Point>
    </Placemark>
    <Placemark>
      <name>Hugo-Eckener-Str.</name>
      <Point>
        <coordinates>6.892437,50.9776769</coordinates>
      </Point>
    </Placemark>
    <Placemark>
      <name>Von-Hünefeld-Str.</name>
      <Point>
        <coordinates>6.8853938,50.9773273</coordinates>
      </Point>
    </Placemark>
    <Placemark>
      <name>Von-Hünefeld-Str.</name>
      <Point>
        <coordinates>6.8854391,50.977209</coordinates>
      </Point>
    </Placemark>
    <Placemark>
      <name>Mathias-Brüggen-Str.</name>
      <Point>
        <coordinates>6.885061,50.982935</coordinates>
      </Point>
    </Placemark>
    <Placemark>
      <name>Wolffsohnstr.</name>
      <Point>
        <coordinates>6.8849729,50.965024</coordinates>
      </Point>
    </Placemark>
    <Placemark>
      <name>Westfriedhof</name>
      <Point>
        <coordinates>6.8785059,50.9674606</coordinates>
      </Point>
    </Placemark>
    <Placemark>
      <name>Lacher Broch</name>
      <Point>
        <coordinates>7.0413576,50.9585179</coordinates>
      </Point>
    </Placemark>
    <Placemark>
      <name>Lacher Broch</name>
      <Point>
        <coordinates>7.0409623,50.9584708</coordinates>
      </Point>
    </Placemark>
    <Placemark>
      <name>Kolkrabenweg</name>
      <Point>
        <coordinates>6.8785661,50.9646116</coordinates>
      </Point>
    </Placemark>
    <Placemark>
      <name>Steinkauzweg</name>
      <Point>
        <coordinates>6.8743175,50.9635792</coordinates>
      </Point>
    </Placemark>
    <Placemark>
      <name>Steinkauzweg</name>
      <Point>
        <coordinates>6.8752101,50.9634764</coordinates>
      </Point>
    </Placemark>
    <Placemark>
      <name>Bachstelzenweg</name>
      <Point>
        <coordinates>6.872146,50.9613627</coordinates>
      </Point>
    </Placemark>
    <Placemark>
      <name>Bachstelzenweg</name>
      <Point>
        <coordinates>6.8723069,50.9612954</coordinates>
      </Point>
    </Placemark>
    <Placemark>
      <name>Goldammerweg</name>
      <Point>
        <coordinates>6.8731674,50.9583731</coordinates>
      </Point>
    </Placemark>
    <Placemark>
      <name>Vogelsanger Markt</name>
      <Point>
        <coordinates>6.8809691,50.955522</coordinates>
      </Point>
    </Placemark>
    <Placemark>
      <name>Falkenweg</name>
      <Point>
        <coordinates>6.8845437,50.9554915</coordinates>
      </Point>
    </Placemark>
    <Placemark>
      <name>Bocklemünd</name>
      <Point>
        <coordinates>6.8728372,50.9693753</coordinates>
      </Point>
    </Placemark>
    <Placemark>
      <name>Bocklemünd</name>
      <Point>
        <coordinates>6.8729913,50.9694411</coordinates>
      </Point>
    </Placemark>
    <Placemark>
      <name>WDR</name>
      <Point>
        <coordinates>6.8568384,50.9700092</coordinates>
      </Point>
    </Placemark>
    <Placemark>
      <name>Grevenbroicher Str.</name>
      <Point>
        <coordinates>6.86573,50.9730707</coordinates>
      </Point>
    </Placemark>
    <Placemark>
      <name>Nattermannallee</name>
      <Point>
        <coordinates>6.8588755,50.9756506</coordinates>
      </Point>
    </Placemark>
    <Placemark>
      <name>Dohmengasse</name>
      <Point>
        <coordinates>6.8577885,50.9803512</coordinates>
      </Point>
    </Placemark>
    <Placemark>
      <name>Dohmengasse</name>
      <Point>
        <coordinates>6.8594328,50.9810077</coordinates>
      </Point>
    </Placemark>
    <Placemark>
      <name>Kochwiesenstr.</name>
      <Point>
        <coordinates>7.0497075,50.9631366</coordinates>
      </Point>
    </Placemark>
    <Placemark>
      <name>Auweilerweg</name>
      <Point>
        <coordinates>6.858776,50.986978</coordinates>
      </Point>
    </Placemark>
    <Placemark>
      <name>Ollenhauerring</name>
      <Point>
        <coordinates>6.8714997,50.9760731</coordinates>
      </Point>
    </Placemark>
    <Placemark>
      <name>Ollenhauerring</name>
      <Point>
        <coordinates>6.8708179,50.9762597</coordinates>
      </Point>
    </Placemark>
    <Placemark>
      <name>Nüssenberger Str.</name>
      <Point>
        <coordinates>6.8655496,50.9766476</coordinates>
      </Point>
    </Placemark>
    <Placemark>
      <name>Görlinger Zentrum</name>
      <Point>
        <coordinates>6.8650956,50.9800568</coordinates>
      </Point>
    </Placemark>
    <Placemark>
      <name>Heinrich-Mann-Str.</name>
      <Point>
        <coordinates>6.8650849,50.9832103</coordinates>
      </Point>
    </Placemark>
    <Placemark>
      <name>Heinrich-Mann-Str.</name>
      <Point>
        <coordinates>6.8653321,50.983393</coordinates>
      </Point>
    </Placemark>
    <Placemark>
      <name>Buschweg</name>
      <Point>
        <coordinates>6.860243,50.984684</coordinates>
      </Point>
    </Placemark>
    <Placemark>
      <name>Neusser Str./Gürtel</name>
      <Point>
        <coordinates>6.9514272,50.972334</coordinates>
      </Point>
    </Placemark>
    <Placemark>
      <name>Neusser Str./Gürtel</name>
      <Point>
        <coordinates>6.9512323,50.9723281</coordinates>
      </Point>
    </Placemark>
    <Placemark>
      <name>Neusser Str./Gürtel</name>
      <Point>
        <coordinates>6.9515088,50.9725245</coordinates>
      </Point>
    </Placemark>
    <Placemark>
      <name>Florastr.</name>
      <Point>
        <coordinates>6.9537868,50.9642618</coordinates>
      </Point>
    </Placemark>
    <Placemark>
      <name>Florastr.</name>
      <Point>
        <coordinates>6.9536866,50.9649896</coordinates>
      </Point>
    </Placemark>
    <Placemark>
      <name>Lohsestr.</name>
      <Point>
        <coordinates>6.9546952,50.9592982</coordinates>
      </Point>
    </Placemark>
    <Placemark>
      <name>Nordstr.</name>
      <Point>
        <coordinates>6.9533235,50.9668531</coordinates>
      </Point>
    </Placemark>
    <Placemark>
      <name>Leipziger Platz</name>
      <Point>
        <coordinates>6.9558065,50.9664227</coordinates>
      </Point>
    </Placemark>
    <Placemark>
      <name>Niehler Str.</name>
      <Point>
        <coordinates>6.9594518,50.9676585</coordinates>
      </Point>
    </Placemark>
    <Placemark>
      <name>Niehler Str.</name>
      <Point>
        <coordinates>6.9590226,50.9672909</coordinates>
      </Point>
    </Placemark>
    <Placemark>
      <name>Kretzerstr.</name>
      <Point>
        <coordinates>6.9628507,50.9670261</coordinates>
      </Point>
    </Placemark>
    <Placemark>
      <name>Kretzerstr.</name>
      <Point>
        <coordinates>6.9639751,50.9670207</coordinates>
      </Point>
    </Placemark>
    <Placemark>
      <name>Bergstr.</name>
      <Point>
        <coordinates>6.9463444,50.9729052</coordinates>
      </Point>
    </Placemark>
    <Placemark>
      <name>Bergstr.</name>
      <Point>
        <coordinates>6.9463498,50.9739929</coordinates>
      </Point>
    </Placemark>
    <Placemark>
      <name>Sechzigstr.</name>
      <Point>
        <coordinates>6.9446974,50.9594405</coordinates>
      </Point>
    </Placemark>
    <Placemark>
      <name>Sechzigstr.</name>
      <Point>
        <coordinates>6.9448498,50.9581921</coordinates>
      </Point>
    </Placemark>
    <Placemark>
      <name>Merheimer Platz</name>
      <Point>
        <coordinates>6.9500538,50.9579453</coordinates>
      </Point>
    </Placemark>
    <Placemark>
      <name>Merheimer Platz</name>
      <Point>
        <coordinates>6.9497024,50.957927</coordinates>
      </Point>
    </Placemark>
    <Placemark>
      <name>Zoo/Flora</name>
      <Point>
        <coordinates>6.9745125,50.9579926</coordinates>
      </Point>
    </Placemark>
    <Placemark>
      <name>Boltensternstr.</name>
      <Point>
        <coordinates>6.9809837,50.9624144</coordinates>
      </Point>
    </Placemark>
    <Placemark>
      <name>Slabystr.</name>
      <Point>
        <coordinates>6.9877723,50.9660237</coordinates>
      </Point>
    </Placemark>
    <Placemark>
      <name>Kinderkrankenhaus</name>
      <Point>
        <coordinates>6.9685034,50.9636132</coordinates>
      </Point>
    </Placemark>
    <Placemark>
      <name>Amsterdamer Str./Gürtel</name>
      <Point>
        <coordinates>6.9690545,50.9708459</coordinates>
      </Point>
    </Placemark>
    <Placemark>
      <name>Amsterdamer Str./Gürtel</name>
      <Point>
        <coordinates>6.969094,50.9708416</coordinates>
      </Point>
    </Placemark>
    <Placemark>
      <name>Amsterdamer Str./Gürtel</name>
      <Point>
        <coordinates>6.9693395,50.9708907</coordinates>
      </Point>
    </Placemark>
    <Placemark>
      <name>Amsterdamer Str./Gürtel</name>
      <Point>
        <coordinates>6.968895,50.9708491</coordinates>
      </Point>
    </Placemark>
    <Placemark>
      <name>Bodinusstr.</name>
      <Point>
        <coordinates>6.9736274,50.9612591</coordinates>
      </Point>
    </Placemark>
    <Placemark>
      <name>Riehler Gürtel</name>
      <Point>
        <coordinates>6.9766217,50.9643726</coordinates>
      </Point>
    </Placemark>
    <Placemark>
      <name>Riehler Gürtel</name>
      <Point>
        <coordinates>6.9767349,50.9650591</coordinates>
      </Point>
    </Placemark>
    <Placemark>
      <name>Seniorenzentrum Riehl</name>
      <Point>
        <coordinates>6.9790249,50.9679759</coordinates>
      </Point>
    </Placemark>
    <Placemark>
      <name>Xantener Str.</name>
      <Point>
        <coordinates>6.9682544,50.9661419</coordinates>
      </Point>
    </Placemark>
    <Placemark>
      <name>Xantener Str.</name>
      <Point>
        <coordinates>6.9691299,50.9664608</coordinates>
      </Point>
    </Placemark>
    <Placemark>
      <name>Geldernstr./Parkgürtel</name>
      <Point>
        <coordinates>6.9412635,50.9685597</coordinates>
      </Point>
    </Placemark>
    <Placemark>
      <name>Geldernstr./Parkgürtel</name>
      <Point>
        <coordinates>6.9414871,50.9685728</coordinates>
      </Point>
    </Placemark>
    <Placemark>
      <name>Geldernstr./Parkgürtel</name>
      <Point>
        <coordinates>6.9397998,50.9691083</coordinates>
      </Point>
    </Placemark>
    <Placemark>
      <name>Geldernstr./Parkgürtel</name>
      <Point>
        <coordinates>6.9398856,50.968686</coordinates>
      </Point>
    </Placemark>
    <Placemark>
      <name>Escher Str.</name>
      <Point>
        <coordinates>6.9336544,50.9644684</coordinates>
      </Point>
    </Placemark>
    <Placemark>
      <name>Nievenheimer Str.</name>
      <Point>
        <coordinates>6.9403219,50.9624169</coordinates>
      </Point>
    </Placemark>
    <Placemark>
      <name>Ludwigsburger Str.</name>
      <Point>
        <coordinates>6.9400777,50.9654795</coordinates>
      </Point>
    </Placemark>
    <Placemark>
      <name>Frankenthaler Str.</name>
      <Point>
        <coordinates>6.935977,50.9690926</coordinates>
      </Point>
    </Placemark>
    <Placemark>
      <name>Frankenthaler Str.</name>
      <Point>
        <coordinates>6.9365268,50.9689399</coordinates>
      </Point>
    </Placemark>
    <Placemark>
      <name>Ebernburgweg</name>
      <Point>
        <coordinates>6.9317085,50.9691191</coordinates>
      </Point>
    </Placemark>
    <Placemark>
      <name>Alzeyer Str.</name>
      <Point>
        <coordinates>6.9270348,50.9696866</coordinates>
      </Point>
    </Placemark>
    <Placemark>
      <name>Alzeyer Str.</name>
      <Point>
        <coordinates>6.9270819,50.970354</coordinates>
      </Point>
    </Placemark>
    <Placemark>
      <name>Am Bilderstöckchen</name>
      <Point>
        <coordinates>6.9254929,50.9732835</coordinates>
      </Point>
    </Placemark>
    <Placemark>
      <name>Robert-Perthel-Str.</name>
      <Point>
        <coordinates>6.9181705,50.9807278</coordinates>
      </Point>
    </Placemark>
    <Placemark>
      <name>Robert-Perthel-Str.</name>
      <Point>
        <coordinates>6.9181812,50.9809338</coordinates>
      </Point>
    </Placemark>
    <Placemark>
      <name>Longericher Str. Nord</name>
      <Point>
        <coordinates>6.9128704,50.9840239</coordinates>
      </Point>
    </Placemark>
    <Placemark>
      <name>Longericher Str. Nord</name>
      <Point>
        <coordinates>6.9125754,50.9839733</coordinates>
      </Point>
    </Placemark>
    <Placemark>
      <name>Mollwitzstr.</name>
      <Point>
        <coordinates>6.948726,50.9784395</coordinates>
      </Point>
    </Placemark>
    <Placemark>
      <name>Scheibenstr.</name>
      <Point>
        <coordinates>6.9463636,50.9856627</coordinates>
      </Point>
    </Placemark>
    <Placemark>
      <name>Nordfriedhof</name>
      <Point>
        <coordinates>6.945883,50.9759857</coordinates>
      </Point>
    </Placemark>
    <Placemark>
      <name>Nordfriedhof</name>
      <Point>
        <coordinates>6.9458133,50.9758506</coordinates>
      </Point>
    </Placemark>
    <Placemark>
      <name>Nibelungenplatz</name>
      <Point>
        <coordinates>6.939694,50.9745347</coordinates>
      </Point>
    </Placemark>
    <Placemark>
      <name>Schmiedegasse</name>
      <Point>
        <coordinates>6.935622,50.9771788</coordinates>
      </Point>
    </Placemark>
    <Placemark>
      <name>Etzelstr.</name>
      <Point>
        <coordinates>6.9318582,50.9784097</coordinates>
      </Point>
    </Placemark>
    <Placemark>
      <name>Niehl</name>
      <Point>
        <coordinates>6.9555085,50.9955187</coordinates>
      </Point>
    </Placemark>
    <Placemark>
      <name>Niehl</name>
      <Point>
        <coordinates>6.9558568,50.9948085</coordinates>
      </Point>
    </Placemark>
    <Placemark>
      <name>Niehl Sebastianstr.</name>
      <Point>
        <coordinates>6.9612189,50.9853131</coordinates>
      </Point>
    </Placemark>
    <Placemark>
      <name>Friedrich-Karl-Str./Niehler Str.</name>
      <Point>
        <coordinates>6.959825,50.974658</coordinates>
      </Point>
    </Placemark>
    <Placemark>
      <name>Drosselweg</name>
      <Point>
        <coordinates>6.9606982,50.9770265</coordinates>
      </Point>
    </Placemark>
    <Placemark>
      <name>Weidenpescher Str.</name>
      <Point>
        <coordinates>6.9633725,50.9795397</coordinates>
      </Point>
    </Placemark>
    <Placemark>
      <name>Weidenpescher Str.</name>
      <Point>
        <coordinates>6.9634766,50.9798168</coordinates>
      </Point>
    </Placemark>
    <Placemark>
      <name>Graditzer Str.</name>
      <Point>
        <coordinates>6.9606644,50.9827253</coordinates>
      </Point>
    </Placemark>
    <Placemark>
      <name>Merkenicher Str.</name>
      <Point>
        <coordinates>6.961401,50.9892695</coordinates>
      </Point>
    </Placemark>
    <Placemark>
      <name>Merkenicher Str.</name>
      <Point>
        <coordinates>6.9614601,50.9901004</coordinates>
      </Point>
    </Placemark>
    <Placemark>
      <name>Halfengasse</name>
      <Point>
        <coordinates>6.958849,50.9924301</coordinates>
      </Point>
    </Placemark>
    <Placemark>
      <name>Niehler Damm</name>
      <Point>
        <coordinates>6.9609908,50.9942277</coordinates>
      </Point>
    </Placemark>
    <Placemark>
      <name>Riehl Betriebshof Nord</name>
      <Point>
        <coordinates>6.9729004,50.9748449</coordinates>
      </Point>
    </Placemark>
    <Placemark>
      <name>Meerfeldstr.</name>
      <Point>
        <coordinates>6.9207546,50.9951058</coordinates>
      </Point>
    </Placemark>
    <Placemark>
      <name>Longericher Str.</name>
      <Point>
        <coordinates>6.9141538,50.9961827</coordinates>
      </Point>
    </Placemark>
    <Placemark>
      <name>Longericher Str.</name>
      <Point>
        <coordinates>6.9139745,50.996011</coordinates>
      </Point>
    </Placemark>
    <Placemark>
      <name>Longerich Friedhof</name>
      <Point>
        <coordinates>6.9112343,50.9955978</coordinates>
      </Point>
    </Placemark>
    <Placemark>
      <name>Longerich Friedhof</name>
      <Point>
        <coordinates>6.9118632,50.9952222</coordinates>
      </Point>
    </Placemark>
    <Placemark>
      <name>Longerich S-Bahn</name>
      <Point>
        <coordinates>6.9013292,50.9982216</coordinates>
      </Point>
    </Placemark>
    <Placemark>
      <name>Longerich S-Bahn</name>
      <Point>
        <coordinates>6.9014129,50.9982511</coordinates>
      </Point>
    </Placemark>
    <Placemark>
      <name>Longerich S-Bahn</name>
      <Point>
        <coordinates>6.9015804,50.9983571</coordinates>
      </Point>
    </Placemark>
    <Placemark>
      <name>Longerich S-Bahn</name>
      <Point>
        <coordinates>6.9031147,50.9988644</coordinates>
      </Point>
    </Placemark>
    <Placemark>
      <name>Longerich S-Bahn</name>
      <Point>
        <coordinates>6.9030825,50.9991345</coordinates>
      </Point>
    </Placemark>
    <Placemark>
      <name>Longerich S-Bahn</name>
      <Point>
        <coordinates>6.9018057,50.9992898</coordinates>
      </Point>
    </Placemark>
    <Placemark>
      <name>Longerich S-Bahn</name>
      <Point>
        <coordinates>6.902074,50.9993472</coordinates>
      </Point>
    </Placemark>
    <Placemark>
      <name>Lindweilerweg</name>
      <Point>
        <coordinates>6.9017097,50.9954579</coordinates>
      </Point>
    </Placemark>
    <Placemark>
      <name>Lindweilerweg</name>
      <Point>
        <coordinates>6.9016132,50.9953194</coordinates>
      </Point>
    </Placemark>
    <Placemark>
      <name>Dionysstr.</name>
      <Point>
        <coordinates>6.9060683,50.9971014</coordinates>
      </Point>
    </Placemark>
    <Placemark>
      <name>Dionysstr.</name>
      <Point>
        <coordinates>6.9072351,50.997281</coordinates>
      </Point>
    </Placemark>
    <Placemark>
      <name>Dädalusring</name>
      <Point>
        <coordinates>6.9063902,50.9903488</coordinates>
      </Point>
    </Placemark>
    <Placemark>
      <name>Dädalusring</name>
      <Point>
        <coordinates>6.9059128,50.9908317</coordinates>
      </Point>
    </Placemark>
    <Placemark>
      <name>Wilhelm-Sollmann-Str.</name>
      <Point>
        <coordinates>6.9410669,50.9919749</coordinates>
      </Point>
    </Placemark>
    <Placemark>
      <name>Wilhelm-Sollmann-Str.</name>
      <Point>
        <coordinates>6.9409966,50.9918045</coordinates>
      </Point>
    </Placemark>
    <Placemark>
      <name>Altonaer Platz</name>
      <Point>
        <coordinates>6.9328185,50.9939738</coordinates>
      </Point>
    </Placemark>
    <Placemark>
      <name>Herforder Str.</name>
      <Point>
        <coordinates>6.9255022,50.9946677</coordinates>
      </Point>
    </Placemark>
    <Placemark>
      <name>Bremerhavener Str.</name>
      <Point>
        <coordinates>6.9362449,50.9983343</coordinates>
      </Point>
    </Placemark>
    <Placemark>
      <name>Esso</name>
      <Point>
        <coordinates>6.9296665,51.0075559</coordinates>
      </Point>
    </Placemark>
    <Placemark>
      <name>Geestemünder Str.</name>
      <Point>
        <coordinates>6.9552444,51.0022082</coordinates>
      </Point>
    </Placemark>
    <Placemark>
      <name>Fordwerke Süd</name>
      <Point>
        <coordinates>6.9553434,51.0059474</coordinates>
      </Point>
    </Placemark>
    <Placemark>
      <name>Fordwerke Mitte</name>
      <Point>
        <coordinates>6.9553571,51.0118627</coordinates>
      </Point>
    </Placemark>
    <Placemark>
      <name>Fordwerke Nord</name>
      <Point>
        <coordinates>6.9553507,51.0172334</coordinates>
      </Point>
    </Placemark>
    <Placemark>
      <name>Fordwerke Nord</name>
      <Point>
        <coordinates>6.9553672,51.0180671</coordinates>
      </Point>
    </Placemark>
    <Placemark>
      <name>Heinering</name>
      <Point>
        <coordinates>6.8724271,50.9961955</coordinates>
      </Point>
    </Placemark>
    <Placemark>
      <name>Heinering</name>
      <Point>
        <coordinates>6.8725287,50.9958608</coordinates>
      </Point>
    </Placemark>
    <Placemark>
      <name>Pesch Schulstr.</name>
      <Point>
        <coordinates>6.8695687,50.9992159</coordinates>
      </Point>
    </Placemark>
    <Placemark>
      <name>Pesch Schulstr.</name>
      <Point>
        <coordinates>6.8694915,50.9989691</coordinates>
      </Point>
    </Placemark>
    <Placemark>
      <name>Auweiler</name>
      <Point>
        <coordinates>6.852972,51.0025998</coordinates>
      </Point>
    </Placemark>
    <Placemark>
      <name>Hermann-Löns-Str.</name>
      <Point>
        <coordinates>6.853897,51.0058559</coordinates>
      </Point>
    </Placemark>
    <Placemark>
      <name>Chorbuschstr.</name>
      <Point>
        <coordinates>6.8576891,51.0125962</coordinates>
      </Point>
    </Placemark>
    <Placemark>
      <name>Chorbuschstr.</name>
      <Point>
        <coordinates>6.8577589,51.0126192</coordinates>
      </Point>
    </Placemark>
    <Placemark>
      <name>Chorbuschstr.</name>
      <Point>
        <coordinates>6.8569884,51.01327</coordinates>
      </Point>
    </Placemark>
    <Placemark>
      <name>Chorbuschstr.</name>
      <Point>
        <coordinates>6.8585931,51.013013</coordinates>
      </Point>
    </Placemark>
    <Placemark>
      <name>Esch</name>
      <Point>
        <coordinates>6.8553392,51.0136853</coordinates>
      </Point>
    </Placemark>
    <Placemark>
      <name>Esch</name>
      <Point>
        <coordinates>6.8543131,51.0139732</coordinates>
      </Point>
    </Placemark>
    <Placemark>
      <name>Johannes-Prassel-Str.</name>
      <Point>
        <coordinates>6.8465532,51.01459</coordinates>
      </Point>
    </Placemark>
    <Placemark>
      <name>Johannes-Prassel-Str.</name>
      <Point>
        <coordinates>6.8473964,51.0145469</coordinates>
      </Point>
    </Placemark>
    <Placemark>
      <name>Sinnersdorfer Mühle</name>
      <Point>
        <coordinates>6.834705,51.0177914</coordinates>
      </Point>
    </Placemark>
    <Placemark>
      <name>Pescher Weg</name>
      <Point>
        <coordinates>6.882362,50.999844</coordinates>
      </Point>
    </Placemark>
    <Placemark>
      <name>Pescher Weg</name>
      <Point>
        <coordinates>6.8821893,50.99961</coordinates>
      </Point>
    </Placemark>
    <Placemark>
      <name>Otto-Müller-Str.</name>
      <Point>
        <coordinates>6.8788593,51.0002455</coordinates>
      </Point>
    </Placemark>
    <Placemark>
      <name>Otto-Müller-Str.</name>
      <Point>
        <coordinates>6.8782867,51.0008242</coordinates>
      </Point>
    </Placemark>
    <Placemark>
      <name>Gewerbegebiet Pesch</name>
      <Point>
        <coordinates>6.872871,51.004135</coordinates>
      </Point>
    </Placemark>
    <Placemark>
      <name>Gewerbegebiet Pesch</name>
      <Point>
        <coordinates>6.873197,51.004276</coordinates>
      </Point>
    </Placemark>
    <Placemark>
      <name>Donatusstr.</name>
      <Point>
        <coordinates>6.871477,51.006597</coordinates>
      </Point>
    </Placemark>
    <Placemark>
      <name>Heimersdorf</name>
      <Point>
        <coordinates>6.9071309,51.0116361</coordinates>
      </Point>
    </Placemark>
    <Placemark>
      <name>Heimersdorf</name>
      <Point>
        <coordinates>6.9079627,51.0124936</coordinates>
      </Point>
    </Placemark>
    <Placemark>
      <name>Chorweiler</name>
      <Point>
        <coordinates>6.8977987,51.0211285</coordinates>
      </Point>
    </Placemark>
    <Placemark>
      <name>Chorweiler</name>
      <Point>
        <coordinates>6.8980399,51.0210596</coordinates>
      </Point>
    </Placemark>
    <Placemark>
      <name>Chorweiler</name>
      <Point>
        <coordinates>6.8978557,51.0211182</coordinates>
      </Point>
    </Placemark>
    <Placemark>
      <name>Karl-Marx-Allee</name>
      <Point>
        <coordinates>6.9039151,51.0239161</coordinates>
      </Point>
    </Placemark>
    <Placemark>
      <name>Karl-Marx-Allee</name>
      <Point>
        <coordinates>6.904231,51.0239863</coordinates>
      </Point>
    </Placemark>
    <Placemark>
      <name>Am Hetzepetsch</name>
      <Point>
        <coordinates>6.9126804,51.0144806</coordinates>
      </Point>
    </Placemark>
    <Placemark>
      <name>Am Hetzepetsch</name>
      <Point>
        <coordinates>6.9126375,51.0142376</coordinates>
      </Point>
    </Placemark>
    <Placemark>
      <name>Herstattallee</name>
      <Point>
        <coordinates>6.9024978,51.0170587</coordinates>
      </Point>
    </Placemark>
    <Placemark>
      <name>Herstattallee</name>
      <Point>
        <coordinates>6.9041036,51.0167405</coordinates>
      </Point>
    </Placemark>
    <Placemark>
      <name>Zypressenstr.</name>
      <Point>
        <coordinates>6.899434,51.012597</coordinates>
      </Point>
    </Placemark>
    <Placemark>
      <name>Stallagsweg</name>
      <Point>
        <coordinates>6.8957926,51.0102862</coordinates>
      </Point>
    </Placemark>
    <Placemark>
      <name>Pulheimer Str.</name>
      <Point>
        <coordinates>6.899042,51.005606</coordinates>
      </Point>
    </Placemark>
    <Placemark>
      <name>Marienberger Weg</name>
      <Point>
        <coordinates>6.8926358,51.0001331</coordinates>
      </Point>
    </Placemark>
    <Placemark>
      <name>Marienberger Weg</name>
      <Point>
        <coordinates>6.8925253,50.9999818</coordinates>
      </Point>
    </Placemark>
    <Placemark>
      <name>Lindweilerfeld</name>
      <Point>
        <coordinates>6.8896816,51.0028704</coordinates>
      </Point>
    </Placemark>
    <Placemark>
      <name>Lindweilerfeld</name>
      <Point>
        <coordinates>6.889628,51.0032046</coordinates>
      </Point>
    </Placemark>
    <Placemark>
      <name>Unnauer Weg</name>
      <Point>
        <coordinates>6.8894086,51.0072936</coordinates>
      </Point>
    </Placemark>
    <Placemark>
      <name>Unnauer Weg</name>
      <Point>
        <coordinates>6.8905351,51.0058084</coordinates>
      </Point>
    </Placemark>
    <Placemark>
      <name>Seeberg</name>
      <Point>
        <coordinates>6.9176312,51.0186391</coordinates>
      </Point>
    </Placemark>
    <Placemark>
      <name>Merianstr.</name>
      <Point>
        <coordinates>6.9100677,51.0274059</coordinates>
      </Point>
    </Placemark>
    <Placemark>
      <name>Merianstr.</name>
      <Point>
        <coordinates>6.9112096,51.0270793</coordinates>
      </Point>
    </Placemark>
    <Placemark>
      <name>Merianstr.</name>
      <Point>
        <coordinates>6.9095981,51.0267112</coordinates>
      </Point>
    </Placemark>
    <Placemark>
      <name>Fühlinger Weg</name>
      <Point>
        <coordinates>6.8879226,51.0209079</coordinates>
      </Point>
    </Placemark>
    <Placemark>
      <name>Fühlinger Weg</name>
      <Point>
        <coordinates>6.888164,51.0202162</coordinates>
      </Point>
    </Placemark>
    <Placemark>
      <name>Friedhof Chorweiler</name>
      <Point>
        <coordinates>6.881043,51.018148</coordinates>
      </Point>
    </Placemark>
    <Placemark>
      <name>Blockstr.</name>
      <Point>
        <coordinates>6.87587,51.021945</coordinates>
      </Point>
    </Placemark>
    <Placemark>
      <name>Wezelostr.</name>
      <Point>
        <coordinates>6.884669,51.021456</coordinates>
      </Point>
    </Placemark>
    <Placemark>
      <name>Weiler</name>
      <Point>
        <coordinates>6.882343,51.023323</coordinates>
      </Point>
    </Placemark>
    <Placemark>
      <name>Volkhovener Weg</name>
      <Point>
        <coordinates>6.8932042,51.0141205</coordinates>
      </Point>
    </Placemark>
    <Placemark>
      <name>Volkhovener Weg</name>
      <Point>
        <coordinates>6.8932593,51.0141137</coordinates>
      </Point>
    </Placemark>
    <Placemark>
      <name>Volkhovener Weg</name>
      <Point>
        <coordinates>6.8928064,51.0141505</coordinates>
      </Point>
    </Placemark>
    <Placemark>
      <name>Volkhovener Weg</name>
      <Point>
        <coordinates>6.8925044,51.0143572</coordinates>
      </Point>
    </Placemark>
    <Placemark>
      <name>Weichselring</name>
      <Point>
        <coordinates>6.894891,51.0258782</coordinates>
      </Point>
    </Placemark>
    <Placemark>
      <name>Weichselring</name>
      <Point>
        <coordinates>6.8949446,51.025642</coordinates>
      </Point>
    </Placemark>
    <Placemark>
      <name>Weichselring</name>
      <Point>
        <coordinates>6.8961999,51.0262291</coordinates>
      </Point>
    </Placemark>
    <Placemark>
      <name>Weichselring</name>
      <Point>
        <coordinates>6.8963823,51.0265665</coordinates>
      </Point>
    </Placemark>
    <Placemark>
      <name>Haus Fühlingen</name>
      <Point>
        <coordinates>6.9066099,51.0312984</coordinates>
      </Point>
    </Placemark>
    <Placemark>
      <name>Haus Fühlingen</name>
      <Point>
        <coordinates>6.9066636,51.0308513</coordinates>
      </Point>
    </Placemark>
    <Placemark>
      <name>Fühlingen</name>
      <Point>
        <coordinates>6.9034128,51.0359482</coordinates>
      </Point>
    </Placemark>
    <Placemark>
      <name>Fühlingen</name>
      <Point>
        <coordinates>6.9028625,51.0367717</coordinates>
      </Point>
    </Placemark>
    <Placemark>
      <name>Mennweg</name>
      <Point>
        <coordinates>6.8982076,51.043604</coordinates>
      </Point>
    </Placemark>
    <Placemark>
      <name>Mennweg</name>
      <Point>
        <coordinates>6.8981906,51.0438897</coordinates>
      </Point>
    </Placemark>
    <Placemark>
      <name>Langel Fähre</name>
      <Point>
        <coordinates>6.9145763,51.052707</coordinates>
      </Point>
    </Placemark>
    <Placemark>
      <name>Langel Nord</name>
      <Point>
        <coordinates>6.9163251,51.0510614</coordinates>
      </Point>
    </Placemark>
    <Placemark>
      <name>Langel Nord</name>
      <Point>
        <coordinates>6.9159801,51.0514376</coordinates>
      </Point>
    </Placemark>
    <Placemark>
      <name>Langel Mohlenweg</name>
      <Point>
        <coordinates>6.920048,51.0485591</coordinates>
      </Point>
    </Placemark>
    <Placemark>
      <name>Langel Mohlenweg</name>
      <Point>
        <coordinates>6.9202609,51.0486656</coordinates>
      </Point>
    </Placemark>
    <Placemark>
      <name>Langel Kuhlenweg</name>
      <Point>
        <coordinates>6.9248116,51.0461512</coordinates>
      </Point>
    </Placemark>
    <Placemark>
      <name>Langel Kuhlenweg</name>
      <Point>
        <coordinates>6.9247026,51.0464195</coordinates>
      </Point>
    </Placemark>
    <Placemark>
      <name>Rheinkassel</name>
      <Point>
        <coordinates>6.9327616,51.0394325</coordinates>
      </Point>
    </Placemark>
    <Placemark>
      <name>Oranjehofstr.</name>
      <Point>
        <coordinates>6.9392234,51.0254849</coordinates>
      </Point>
    </Placemark>
    <Placemark>
      <name>Oranjehofstr.</name>
      <Point>
        <coordinates>6.9394551,51.0256252</coordinates>
      </Point>
    </Placemark>
    <Placemark>
      <name>Rheinlandstr.</name>
      <Point>
        <coordinates>6.9284755,51.0267716</coordinates>
      </Point>
    </Placemark>
    <Placemark>
      <name>Edsel-Ford-Str.</name>
      <Point>
        <coordinates>6.9228428,51.0303412</coordinates>
      </Point>
    </Placemark>
    <Placemark>
      <name>Robert-Bosch-Str.</name>
      <Point>
        <coordinates>6.9196832,51.0321292</coordinates>
      </Point>
    </Placemark>
    <Placemark>
      <name>Merkenich Mitte</name>
      <Point>
        <coordinates>6.9530997,51.0243839</coordinates>
      </Point>
    </Placemark>
    <Placemark>
      <name>Merkenich</name>
      <Point>
        <coordinates>6.9479872,51.0281255</coordinates>
      </Point>
    </Placemark>
    <Placemark>
      <name>Merkenich</name>
      <Point>
        <coordinates>6.9479223,51.0284425</coordinates>
      </Point>
    </Placemark>
    <Placemark>
      <name>Schlettstadter Str.</name>
      <Point>
        <coordinates>6.9517195,51.0307359</coordinates>
      </Point>
    </Placemark>
    <Placemark>
      <name>Kasselberg</name>
      <Point>
        <coordinates>6.939553,51.0366193</coordinates>
      </Point>
    </Placemark>
    <Placemark>
      <name>Worringen S-Bahn</name>
      <Point>
        <coordinates>6.851938,51.0522707</coordinates>
      </Point>
    </Placemark>